time,timestamp,recordtime,lat,long,alt,speed,course,verticalAccuracy,horizontalAccuracy,locTimeStamp,accelerationX,accelerationY,accelerationZ,HeadingX,HeadingY,HeadingZ,TrueHeading,MagneticHeading,HeadingAccuracy,RotationX,RotationY,RotationZ,motionYaw,motionRoll,motionPitch,motionRotationRateX,motionRotationRateY,motionRotationRateZ,motionUserAccelerationX,motionUserAccelerationY,motionUserAccelerationZ,en0,pdp_ip0,DeviceOrientation,State
2014-11-28 14:56:38.450,1,0.03333334,56.1773,10.20143,0.3643188,-1,-1,51.75906,1414,1417182993,0.003158569,0.0025177,-1.009995,15.13934,8.545624,-49.36257,164.0696,161.7919,26,0.04885276,-0.002922553,-0.005414207,-0.3084372,0.003072276,0.0001602203,0.0016379,-0.005790079,-0.003476619,0.001139155,-0.0004501313,-0.01125046,0.0.0.0,10.221.79.104,1,0
2014-11-28 14:56:38.482,2,0.06666667,56.1773,10.20143,0.3643188,-1,-1,51.75906,1414,1417182993,0.006851196,0.002441406,-1.009262,15.18997,8.630295,-49.41215,161.7855,159.5077,26,0.0439616,-0.006542322,-0.002926281,-0.3083229,0.003154652,0.0002630385,0.008799054,0.0001922934,0.004961008,0.003086198,-0.003277001,-0.01271558,0.0.0.0,10.221.79.104,1,0
2014-11-28 14:56:38.516,3,0.1,56.1773,10.20143,0.3643188,-1,-1,51.75906,1414,1417182993,0.004943848,-0.0001678467,-1.003662,15.10559,8.511749,-49.23037,160.6636,158.3859,26,0.04529877,0.003261041,-0.01510731,-0.3081808,0.003020419,0.0001482992,0.005245739,-0.009506881,0.001349689,0.001114718,0.002894881,-0.008778377,0.0.0.0,10.221.79.104,1,0
2014-11-28 14:56:38.549,4,0.1333333,56.1773,10.20143,0.3643188,-1,-1,51.75906,1414,1417182993,0.005630493,0.002731323,-1.012924,15.13934,8.511749,-49.46172,159.5552,157.2775,26,0.04407825,-0.008946091,-0.01022787,-0.3082286,0.00301113,0.0002695664,-0.0008565088,0.0004885941,-0.004709995,0.001154524,0.001581822,-0.0122116,0.0.0.0,10.221.79.104,1,0
2014-11-28 14:56:38.583,5,0.1666667,56.1773,10.20143,0.3643188,-1,-1,51.75906,1414,1417182993,0.001541138,0.008087158,-1.008499,15.05496,8.59642,-49.47825,158.46,156.1823,26,0.04279753,-0.004066647,-0.007780159,-0.3081593,0.002924296,0.0001905909,0.002673468,0.001629699,0.003767293,0.002706201,0.002921914,-0.01292849,0.0.0.0,10.221.79.104,1,0
2014-11-28 14:56:38.616,6,0.2,56.1773,10.20143,0.3643188,-1,-1,51.75906,1414,1417182993,0.00730896,0.004379272,-1.011459,15.20685,8.74881,-49.59391,156.3085,154.0308,26,0.04280126,-0.001621599,-0.008996424,-0.3080259,0.002817323,-8.175825e-05,0.005155794,-0.0008233999,0.001305878,0.00223334,0.005533476,-0.007785955,0.0.0.0,10.221.79.104,1,0
2014-11-28 14:56:38.648,7,0.2333333,56.1773,10.20143,0.3643188,-1,-1,51.75906,1414,1417182993,0.000289917,-0.0005340576,-1.010727,15.13934,8.647202,-49.46171,155.2519,152.9742,26,0.04648654,-0.0004282363,-0.01147077,-0.3080269,0.003114645,-0.0002369511,-0.003360213,-0.004389991,0.001400634,0.00419432,0.004142321,-0.01146423,0.0.0.0,10.221.79.104,1,0
2014-11-28 14:56:38.682,8,0.2666667,56.1773,10.20143,0.3643188,-1,-1,51.75906,1414,1417182993,0.004852295,0.004165649,-1.0056,15.00433,8.714935,-49.46171,154.2079,151.9302,26,0.04763756,0.005645369,-0.009049954,-0.3079425,0.00294677,-0.0001822511,0.006332349,-0.005734961,0.006158496,0.00190553,0.003983398,-0.005604334,0.0.0.0,10.221.79.104,1,0
2014-11-28 14:56:38.716,9,0.3,56.1773,10.20143,0.3643188,-1,-1,51.75906,1414,1417182993,0.005249023,-0.002563477,-1.010757,15.02119,8.596405,-49.90788,152.157,149.8793,26,0.04775341,-0.008978048,-0.01148568,-0.3079448,0.003172394,-0.0002805976,-0.002066032,0.0005131714,-0.00591394,0.0017562,0.000543377,-0.01147968,0.0.0.0,10.221.79.104,1,0
2014-11-28 14:56:38.749,10,0.3333333,56.1773,10.20143,0.3643188,-1,-1,51.75906,1414,1417182993,0.005233765,-0.001846313,-1.009033,15.00433,8.647186,-49.89135,151.1499,148.8722,26,0.04033198,0.0008370315,-0.007751929,-0.3078246,0.00298061,-4.818026e-05,0.00391518,-0.009365067,0.006185313,0.002131089,-0.006945153,-0.01323381,0.0.0.0,10.221.79.104,1,0
2014-11-28 14:56:38.783,11,0.3666667,56.1773,10.20143,0.3643188,-1,-1,51.75906,1414,1417182993,0.004257202,-0.002548218,-1.012238,15.1731,8.850418,-49.92439,150.1547,147.877,26,0.03922916,-0.007664045,-0.01260714,-0.3077357,0.003043598,-4.086005e-05,0.003947103,-0.005686441,0.002535127,0.003319321,0.002659946,-0.009510858,0.0.0.0,10.221.79.104,1,0
2014-11-28 14:56:38.816,12,0.4,56.17361,10.18925,63.80597,-1,-1,96,50,1417182998,0.005172729,0.0003204346,-1.008789,15.39247,8.935089,-49.77567,149.1713,146.8936,26,0.05265842,-0.001687379,-0.01640694,-0.3077437,0.002989142,-2.708219e-06,-0.003308611,-0.0007017647,-0.003466888,-0.001524294,0.0006229021,-0.009754834,0.0.0.0,10.221.79.104,1,0
2014-11-28 14:56:38.849,13,0.4333334,56.17361,10.18925,63.80597,-1,-1,96,50,1417182998,0.006164551,6.103516e-05,-1.013412,15.39247,8.90123,-49.5774,147.2397,144.962,26,0.03923902,-0.01254828,-0.01139061,-0.3077733,0.002860212,4.821132e-06,-0.001095191,-0.0008050539,0.01232529,-0.003577371,-4.095523e-05,-0.009281434,0.0.0.0,10.221.79.104,1,0
2014-11-28 14:56:38.884,14,0.4666667,56.17361,10.18925,63.80597,-1,-1,96,50,1417182998,0.004714966,-0.0008544922,-1.012451,15.18996,8.664154,-49.54433,146.2912,144.0134,26,0.04295865,-0.01134294,-0.01629934,-0.3076192,0.002938562,-0.0001219904,0.003884258,-0.0008167694,0.004969576,0.004934977,0.001098713,-0.009754691,0.0.0.0,10.221.79.104,1,0
2014-11-28 14:56:38.916,15,0.5,56.17361,10.18925,63.80597,-1,-1,96,50,1417182998,-0.0007476807,0.00163269,-1.009003,15.05495,8.664154,-49.70959,145.3538,143.0761,26,0.05382568,-0.00782783,-0.01033706,-0.3075051,0.002833428,-0.0001106241,0.002698842,-0.00690123,0.004982288,-0.001887379,0.002223971,-0.01195165,0.0.0.0,10.221.79.104,1,0
2014-11-28 14:56:38.949,16,0.5333334,56.17361,10.18925,63.80597,-1,-1,96,50,1417182998,0.008071899,0.00289917,-1.009003,14.80179,8.511734,-49.56086,143.5124,141.2347,26,0.05013401,-0.00169164,-0.01029498,-0.3074687,0.002668066,-0.0002152267,-0.002213873,-0.0007533319,0.005037578,0.002641996,0.005155867,-0.01167656,0.0.0.0,10.221.79.104,1,0
2014-11-28 14:56:38.982,17,0.5666667,56.17361,10.18925,63.80597,-1,-1,96,50,1417182998,0.005722046,-0.001144409,-1.007584,14.80179,8.681076,-49.69306,142.6082,140.3304,26,0.05012016,-0.005362275,-0.007861918,-0.3074979,0.002823374,-0.0001098492,0.006499902,0.004110574,-0.009659906,0.003615839,-0.0007812359,-0.006122766,0.0.0.0,10.221.79.104,1,0
2014-11-28 14:56:39.016,18,0.6,56.17361,10.18925,63.80597,-1,-1,96,50,1417182998,0.004974365,-0.00112915,-1.007584,15.17307,9.087509,-49.7922,141.7147,139.4369,26,0.03432788,-0.006399576,-0.01133521,-0.3074569,0.002819872,3.640667e-05,0.007615922,0.004062849,-0.002372256,-0.002117964,0.002355743,-0.009510202,0.0.0.0,10.221.79.104,1,0
2014-11-28 14:56:39.049,19,0.6333334,56.17361,10.18925,63.80597,-1,-1,96,50,1417182998,0.002700806,0.0003662109,-1.007065,15.15619,8.799622,-49.67652,140.8318,138.5541,26,0.0452535,-0.004086088,-0.009024122,-0.3074048,0.002854978,-0.0001323887,0.0002848582,-0.005640203,0.002575542,0.00150904,0.002843075,-0.007557185,0.0.0.0,10.221.79.104,1,0
2014-11-28 14:56:39.082,20,0.6666667,56.17361,10.18925,63.80597,-1,-1,96,50,1417182998,0.004714966,-0.0003967285,-1.008316,15.20682,8.918152,-49.66001,139.0976,136.8199,26,0.04642795,0.0007736483,-0.007820372,-0.3072969,0.002700483,-0.0002519389,-0.007066804,-0.001780114,0.001398942,0.0002597253,0.0005872945,-0.0085486,0.0.0.0,10.221.79.104,1,0
2014-11-28 14:56:39.116,21,0.7,56.17361,10.18925,63.80597,-1,-1,96,50,1417182998,0.002746582,-0.001068115,-1.013428,15.34183,8.850418,-49.66,138.2459,135.9682,26,0.05508323,-0.005383314,-0.01400077,-0.3071444,0.002838594,-0.0003256731,0.003964812,-0.003093609,-0.00237455,0.002517245,0.002863414,-0.008289604,0.0.0.0,10.221.79.104,1,0
2014-11-28 14:56:39.149,22,0.7333333,56.17361,10.18925,63.80597,-1,-1,96,50,1417182998,-3.051758e-05,0.002334595,-1.008514,15.10556,8.918152,-49.46171,137.4042,135.1265,26,0.04900696,-0.008978847,-0.01393313,-0.3071546,0.002883689,-0.0002030947,-0.003342923,-0.004236849,-0.002293107,-0.0006253844,-0.001759491,-0.01320303,0.0.0.0,10.221.79.104,1,0
2014-11-28 14:56:39.182,23,0.7666667,56.17361,10.18925,63.80597,-1,-1,96,50,1417182998,0.008056641,0.003875732,-1.011459,15.13931,9.121368,-49.46171,136.5726,134.2949,26,0.04169791,-0.0162325,-0.01141884,-0.3070869,0.002668946,-0.0002119478,0.001445117,-0.0006534901,0.002520208,0.0002912621,0.0006272856,-0.008548506,0.0.0.0,10.221.79.104,1,0
2014-11-28 14:56:39.216,24,0.8000001,56.17361,10.18925,63.80597,-1,-1,96,50,1417182998,0.002166748,0.002532959,-1.009262,15.27434,8.952026,-49.36256,134.939,132.6613,26,0.0489529,0.006887733,-0.01636459,-0.3069409,0.002679034,-0.0002550741,0.00137271,-0.003120648,0.0086044,0.001288255,-0.0006365438,-0.009296224,0.0.0.0,10.221.79.104,1,0
2014-11-28 14:56:39.249,25,0.8333334,56.17361,10.18925,63.80597,-1,-1,96,50,1417182998,0.003494263,-0.001571655,-1.012451,15.20683,8.816544,-49.32952,134.1367,131.8589,26,0.05390185,-0.002914031,-0.01763785,-0.3069665,0.002635697,-0.0001096053,0.002704357,-0.007926993,0.002468196,0.00261333,-0.0024442,-0.009540223,0.0.0.0,10.221.79.104,1,0
2014-11-28 14:56:39.283,26,0.8666667,56.17361,10.18925,63.80597,-1,-1,96,50,1417182998,0.008789062,0.003616333,-1.012192,15.39247,8.494781,-49.47823,133.3439,131.0662,26,0.05268185,-0.0151209,-0.01275841,-0.3070187,0.002664438,6.564684e-05,0.007567963,-0.005537544,0.002413818,0.0008298282,-0.001506008,-0.01245472,0.0.0.0,10.221.79.104,1,0
2014-11-28 14:56:39.316,27,0.9,56.17361,10.18925,63.80597,-1,-1,96,50,1417182998,0.004486084,-0.001815796,-1.013199,15.39247,8.393188,-49.57737,131.7869,129.5092,26,0.04288355,-0.004037086,-0.01386442,-0.3071286,0.002618519,0.0001532622,0.008931176,-0.006720927,-0.00733501,0.001547134,0.001206119,-0.008548362,0.0.0.0,10.221.79.104,1,0
2014-11-28 14:56:39.349,28,0.9333334,56.17361,10.18925,63.80597,-1,-1,96,50,1417182998,0.003036499,0.007583618,-1.011917,15.5106,8.477875,-49.69305,131.0224,128.7447,26,0.04885303,0.003187537,-0.007847005,-0.3071859,0.002660359,0.0001493471,-0.004635621,-0.0005242358,0.001334288,0.001459517,0.00314007,-0.01097462,0.0.0.0,10.221.79.104,1,0
2014-11-28 14:56:39.382,29,0.9666667,56.17361,10.18925,63.80597,-1,-1,96,50,1417182998,0.004394531,0.002029419,-1.012436,15.35872,8.765762,-49.51127,130.2671,127.9893,26,0.04522261,-0.001652758,-0.007806791,-0.3070819,0.002722835,3.966269e-05,0.002663857,0.00184019,0.001252689,0.0003136671,0.007623281,-0.01192082,0.0.0.0,10.221.79.104,1,0
2014-11-28 14:56:39.416,30,1,56.17361,10.18925,63.80597,-1,-1,96,50,1417182998,0.002670288,0.002288818,-1.009262,15.29121,8.765762,-49.27991,129.5206,127.2429,26,0.0501649,-0.00412497,-0.01151231,-0.3070685,0.00283481,7.159359e-05,-0.0008651573,-0.004140862,-0.004840172,-0.0001645178,0.002360412,-0.009266105,0.0.0.0,10.221.79.104,1,0
2014-11-28 14:56:39.449,31,1.033333,56.17361,10.18925,63.80597,-1,-1,96,50,1417182998,0.0004425049,0.003540039,-1.009247,15.29121,8.765747,-49.41212,128.0543,125.7766,26,0.04761679,0.003194195,-0.006616357,-0.3069596,0.002800564,7.808657e-05,0.006242954,-0.004286943,0.009680631,0.0008157724,0.004289513,-0.01071559,0.0.0.0,10.221.79.104,1,0
2014-11-28 14:56:39.483,32,1.066667,56.17361,10.18925,63.80597,-1,-1,96,50,1417182998,0.001739502,-0.0008087158,-1.008804,15.13934,8.714951,-49.32951,127.3341,125.0564,26,0.04288728,-0.001592038,-0.01508095,-0.3069081,0.002716755,0.0001165275,-0.009383672,-0.01015638,-0.003528729,-0.005417557,0.00058955,-0.009006383,0.0.0.0,10.221.79.104,1,0
2014-11-28 14:56:39.516,33,1.1,56.17361,10.18925,63.80597,-1,-1,96,50,1417182998,0.003753662,-0.001800537,-1.012222,15.27435,8.308533,-49.39561,126.6226,124.3448,26,0.05134948,-0.004149471,-0.009092565,-0.3069729,0.002740622,0.0001499572,-0.0009586315,-0.002951192,0.001244379,-9.29485e-06,-0.0006740174,-0.008319807,0.0.0.0,10.221.79.104,1,0
2014-11-28 14:56:39.549,34,1.133333,56.17361,10.18925,63.80597,-1,-1,96,50,1417182998,0.003143311,0.002990723,-1.007309,15.30811,8.545624,-49.52778,125.2249,122.9472,26,0.04527427,-0.001635181,-0.01145719,-0.3069928,0.002818307,0.0002514712,0.000371463,-0.004147004,-0.006071125,0.001622005,0.0003582828,-0.01610203,0.0.0.0,10.221.79.104,1,0
2014-11-28 14:56:39.582,35,1.166667,56.17361,10.18925,63.80597,-1,-1,96,50,1417182998,0.003662109,0.002288818,-1.011948,15.24062,8.410156,-49.23035,124.5386,122.2609,26,0.05252792,-0.002954511,-0.006672017,-0.3070704,0.002921083,0.0001212199,0.002672539,0.0007059254,0.002369918,0.000237491,0.00263892,-0.007557374,0.0.0.0,10.221.79.104,1,0
2014-11-28 14:56:39.615,36,1.2,56.17361,10.18925,63.80597,-1,-1,96,50,1417182998,0.007400513,0.0007781982,-1.012436,15.29124,8.427094,-49.24686,123.8605,121.5827,26,0.05513116,-0.007810785,-0.01643517,-0.3069569,0.002912252,8.829415e-05,0.007555035,-0.0005642677,0.002314973,0.001161849,0.004986365,-0.008518648,0.0.0.0,10.221.79.104,1,0
2014-11-28 14:56:39.649,37,1.233333,56.17361,10.18925,63.80597,-1,-1,96,50,1417182998,0.004608154,0.003936768,-1.012421,14.98749,8.494843,-49.27991,122.5283,120.2506,26,0.04645858,-0.007769772,-0.006604639,-0.3069726,0.00291659,0.0001492486,-0.004616961,0.002014942,1.846272e-05,0.0006997471,0.004360674,-0.01121947,0.0.0.0,10.221.79.104,1,0
2014-11-28 14:56:39.682,38,1.266667,56.17361,10.18925,63.80597,-1,-1,96,50,1417182998,0.003631592,-0.007110596,-1.00737,14.7681,8.410172,-49.49474,121.8741,119.5964,26,0.0489726,-0.008990832,-0.01149926,-0.3068444,0.00284566,9.178658e-05,-0.004645323,-0.005326173,0.004884515,-0.002143752,0.002426381,-0.01195168,0.0.0.0,10.221.79.104,1,0
2014-11-28 14:56:39.716,39,1.3,56.17361,10.18925,63.80597,-1,-1,96,50,1417182998,0.006164551,4.577637e-05,-1.008789,14.95374,8.562592,-49.97395,121.2276,118.9499,26,0.04785035,-0.001613077,-0.0212198,-0.3069298,0.002667235,7.951828e-05,-0.004522027,-0.008948489,-0.002417393,0.004153446,0.003726369,-0.01366018,0.0.0.0,10.221.79.104,1,0
2014-11-28 14:56:39.749,40,1.333333,56.17361,10.18925,63.80597,-1,-1,96,50,1417182998,0.007064819,0.003875732,-1.006577,14.93686,8.714996,-50.15572,120.5889,118.3112,26,0.04279753,-0.004066647,-0.007780159,-0.3069519,0.002737912,0.0001021863,0.002599404,-0.0005071109,0.008422758,0.003426642,0.0001479626,-0.008792816,0.0.0.0,10.221.79.104,1,0
2014-11-28 14:56:39.783,41,1.366667,56.17361,10.18925,63.80597,-1,-1,96,50,1417182998,0.002914429,0.002532959,-1.011688,15.02126,8.901276,-50.33747,119.3342,117.0564,26,0.04889084,-0.0004652542,-0.009064335,-0.3068791,0.00273618,0.0001265184,0.006458292,-0.009027786,-0.002571676,-0.002003754,0.0005385057,-0.01465219,0.0.0.0,10.221.79.104,1,0
2014-11-28 14:56:39.816,42,1.4,56.17361,10.18925,63.80597,-1,-1,96,50,1417182998,0.003921509,0.001296997,-1.008301,15.12251,9.172241,-50.23833,118.7179,116.4402,26,0.04771586,-0.005325257,-0.01026835,-0.3067728,0.002619217,0.0002430496,0.001475206,-0.005347892,0.003567651,0.001378588,-0.001588005,-0.008807781,0.0.0.0,10.221.79.104,1,0
2014-11-28 14:56:39.849,43,1.433333,56.17361,10.18925,63.80597,-1,-1,96,50,1417182998,0.005142212,0.006378174,-1.008514,14.90314,9.155304,-50.18876,118.109,115.8313,26,0.04161242,-0.004042412,-0.01020017,-0.3067828,0.002560579,0.0002477916,0.003998911,-0.01145204,-0.0001107703,0.004748384,0.004840687,-0.007785291,0.0.0.0,10.221.79.104,1,0
2014-11-28 14:56:39.883,44,1.466667,56.17361,10.18925,63.80597,-1,-1,96,50,1417182998,0.00050354,0.0006561279,-1.009003,14.71748,8.935165,-49.74259,116.9129,114.6351,26,0.05010338,0.0007416903,-0.009077917,-0.3068504,0.002498219,0.0001045104,0.004107444,-0.006525283,-0.009845258,0.001911574,0.001401507,-0.00928047,0.0.0.0,10.221.79.104,1,0
2014-11-28 14:56:39.915,45,1.5,56.17361,10.18925,63.80597,-1,-1,96,50,1417182998,0.003967285,-0.0003814697,-1.007584,14.88625,8.69809,-49.67651,116.3255,114.0478,26,0.04524631,-0.008976451,-0.006590791,-0.3067781,0.0025844,0.0002253785,0.006295751,-0.001723084,0.00711438,0.002344192,0.0007899537,-0.008044747,0.0.0.0,10.221.79.104,1,0
2014-11-28 14:56:39.949,46,1.533333,56.17361,10.18925,63.80597,-1,-1,96,50,1417182998,0.003372192,0.004196167,-1.005844,14.92,8.731949,-49.5443,115.7451,113.4674,26,0.04893159,-0.007783088,-0.009065666,-0.3066264,0.002535467,0.0002120629,-0.0009817113,-0.00529974,0.005978757,-0.0008417381,0.001570095,-0.01391925,0.0.0.0,10.221.79.104,1,0
2014-11-28 14:56:39.982,47,1.566667,56.17361,10.18925,63.80597,-1,-1,96,50,1417182998,0.00189209,0.003982544,-1.009995,14.93689,8.54567,-49.46168,115.1715,112.8938,26,0.04904211,-0.002857572,-0.01880005,-0.3066761,0.002565654,0.000117291,-0.004537037,-0.005224701,-0.001281632,0.002301903,0.003565777,-0.008029421,0.0.0.0,10.221.79.104,1,0
2014-11-28 14:56:40.016,48,1.6,56.17361,10.18925,63.80597,-1,-1,96,50,1417182998,0.004699707,-0.0001373291,-1.013428,15.30818,8.477921,-49.59388,114.0448,111.7671,26,0.04761998,-0.0004703143,-0.005400092,-0.306688,0.002528463,0.0001772353,0.002767977,-0.0004151128,-0.00257972,0.002873152,0.001443715,-0.008548134,0.0.0.0,10.221.79.104,1,0
2014-11-28 14:56:40.049,49,1.633333,56.17361,10.18925,63.80597,-1,-1,96,50,1417182998,0.003890991,0.002746582,-1.010239,15.27443,8.681122,-49.75913,113.4915,111.2138,26,0.04040415,-0.002804309,-0.01140286,-0.3065626,0.002622789,0.00015666,-0.00966895,0.003294525,0.01337683,0.001542864,0.001209516,-0.005359287,0.0.0.0,10.221.79.104,1,0
2014-11-28 14:56:40.082,50,1.666667,56.17361,10.18925,63.80597,-1,-1,96,50,1417182998,0.005371094,0.002731323,-1.011948,15.30818,8.410187,-49.89133,112.9447,110.667,26,0.04402365,-0.005299158,-0.007793741,-0.3064434,0.002610046,7.532373e-05,0.003883612,0.005647926,0.002275095,0.001280948,0.002821906,-0.01024206,0.0.0.0,10.221.79.104,1,0
2014-11-28 14:56:40.116,51,1.7,56.17361,10.18925,63.80597,-1,-1,96,50,1417182998,0.004638672,0.002487183,-1.004868,15.34195,8.477921,-49.75915,111.8705,109.5927,26,0.04894917,-0.001667405,-0.01271526,-0.3063633,0.002804737,-1.842266e-05,0.008798083,0.004413053,0.0009574705,0.001833938,0.00246876,-0.004871487,0.0.0.0,10.221.79.104,1,0
2014-11-28 14:56:40.149,52,1.733333,56.17361,10.18925,63.80597,-1,-1,96,50,1417182998,0.005828857,0.004638672,-1.013641,15.19008,8.528717,-49.87482,111.3429,109.0651,26,0.04152614,-0.0101818,-0.001682585,-0.3063788,0.002842511,-3.375996e-05,0.003975607,0.0008167648,-0.001422359,0.00223867,0.004391289,-0.01121925,0.0.0.0,10.221.79.104,1,0
2014-11-28 14:56:40.183,53,1.766667,56.17361,10.18925,63.80597,-1,-1,96,50,1417182998,-0.001296997,0.003341675,-1.013641,15.08882,8.39325,-49.64349,110.8215,108.5438,26,0.04410621,-0.007714911,-0.01266173,-0.3064203,0.002833026,-0.0001581348,0.005289815,-0.004048853,-0.00630457,0.001622544,-0.0007837451,-0.008060666,0.0.0.0,10.221.79.104,1,0
2014-11-28 14:56:40.216,54,1.8,56.17361,10.18925,63.80597,-1,-1,96,50,1417182998,0.003189087,0.001556396,-1.009521,15.15633,8.39325,-49.70959,110.3064,108.0286,26,0.04031813,-0.00283387,-0.005318599,-0.3064452,0.002641975,-0.0003343054,0.007665159,0.0007913359,-0.003897484,0.0005471148,0.001222091,-0.00952503,0.0.0.0,10.221.79.104,1,0
2014-11-28 14:56:40.249,55,1.833333,56.17361,10.18925,63.80597,-1,-1,96,50,1417182998,0.00592041,0.000793457,-1.008789,15.27446,8.410187,-49.62696,109.2947,107.0169,26,0.05132231,0.0007289072,-0.009091766,-0.306367,0.002771178,-0.0003422846,-0.0009883604,0.0118562,0.001029875,0.001394475,0.0007105718,-0.01001366,0.0.0.0,10.221.79.104,1,0
2014-11-28 14:56:40.282,56,1.866667,56.17361,10.18925,63.80597,-1,-1,96,50,1417182998,0.001480103,-9.155273e-05,-1.00856,15.12257,8.325516,-49.70959,108.7978,106.5201,26,0.04530463,-0.01017834,-0.01024172,-0.3062646,0.002958314,-0.0002548538,0.001408146,-0.005290073,0.01073492,0.001741398,-0.0001633011,-0.01341688,0.0.0.0,10.221.79.104,1,0
2014-11-28 14:56:40.316,57,1.9,56.17361,10.18925,63.80597,-1,-1,96,50,1417182998,0.006378174,0.001739502,-1.009018,15.27444,8.240829,-49.72611,108.3067,106.029,26,0.05384326,-0.00171188,-0.01398666,-0.3061289,0.00288096,-0.0001807942,-0.002189789,-0.000344003,0.004692142,0.003268336,0.0001243815,-0.0122112,0.0.0.0,10.221.79.104,1,0
2014-11-28 14:56:40.349,58,1.933333,56.17361,10.18925,63.80597,-1,-1,96,50,1417182998,0.008407593,-0.0004730225,-1.009293,15.03816,8.410187,-49.62696,107.8214,105.5437,26,0.05030232,-0.01018766,-0.0188147,-0.3061626,0.002970654,-0.0001444488,0.006389029,0.0008056315,0.0009460734,0.0002489551,-3.763724e-05,-0.009022367,0.0.0.0,10.221.79.104,1,0
2014-11-28 14:56:40.385,59,1.966667,56.17361,10.18925,63.80597,-1,-1,96,50,1417182998,0.003097534,0.005401611,-1.010223,14.76814,8.274689,-49.69308,106.8682,104.5905,26,0.04893558,0.0007717841,-0.012715,-0.3062809,0.002983463,-0.0001397547,0.0003917262,-0.001539632,-0.005070602,0.001655214,0.002347428,-0.006321599,0.0.0.0,10.221.79.104,1,0
2014-11-28 14:56:40.417,60,2,56.17361,10.18925,63.80597,-1,-1,96,50,1417182998,0.005966187,-0.001617432,-1.013687,15.12254,8.393234,-49.80875,106.4002,104.1225,26,0.04408517,-0.01016582,-0.01022814,-0.3062178,0.003077312,-0.0002130872,0.005147162,0.004478426,0.0009602922,0.001546106,0.003006517,-0.01292895,0.0.0.0,10.221.79.104,1,0
2014-11-28 14:56:40.449,61,2.033334,56.17361,10.18925,63.80597,-1,-1,96,50,1417182998,0.003631592,0.003234863,-1.008774,14.95377,8.562576,-49.80875,105.9378,103.66,26,0.04265372,0.003215501,-0.0004772385,-0.3062138,0.003228419,-6.133033e-05,-0.0008817815,-0.008854753,0.00220566,0.003729594,-0.00195342,-0.007832972,0.0.0.0,10.221.79.104,1,0
2014-11-28 14:56:40.482,62,2.066667,56.17361,10.18925,63.80597,-1,-1,96,50,1417182998,0.003463745,-0.0001068115,-1.011002,15.02127,8.359344,-49.94093,105.0293,102.7515,26,0.04769162,-0.01022148,-0.006618488,-0.3060995,0.003379771,-3.386242e-05,0.001515976,0.0045477,-0.0002533085,0.003456173,0.002895825,-0.01195334,0.0.0.0,10.221.79.104,1,0
2014-11-28 14:56:40.516,63,2.1,56.17361,10.18925,63.80597,-1,-1,96,50,1417182998,0.001968384,0.0008850098,-1.01268,15.37567,8.545624,-49.92442,104.5831,102.3053,26,0.04174612,-0.01255015,-0.01628576,-0.3061717,0.003347028,-0.0001606635,-0.0008784526,-0.0002991874,-0.001443806,0.002252954,0.003760845,-0.01219739,0.0.0.0,10.221.79.104,1,0
2014-11-28 14:56:40.549,64,2.133333,56.17361,10.18925,63.80597,-1,-1,96,50,1417182998,0.006652832,0.000289917,-1.008545,15.03815,8.714981,-49.89137,104.1422,101.8645,26,0.04163346,-0.001591505,-0.0126335,-0.3061225,0.00324716,-0.0002786556,0.005180266,0.003290651,-0.0002945027,0.001452553,-0.0001871028,-0.01244122,0.0.0.0,10.221.79.104,1,0
2014-11-28 14:56:40.587,65,2.166667,56.17361,10.18925,63.80597,-1,-1,96,50,1417182998,0.005691528,6.103516e-05,-1.009018,15.22379,8.765778,-50.2384,103.2762,100.9985,26,0.04521169,-0.008988169,-0.004156928,-0.3061174,0.003259401,-0.0003003048,0.002751362,-0.001567682,0.0009485955,0.0004027144,0.001729114,-0.006337754,0.0.0.0,10.221.79.104,1,0
2014-11-28 14:56:40.616,66,2.2,56.17361,10.18925,63.80597,-1,-1,96,50,1417182998,0.003250122,-0.001327515,-1.011719,15.29129,8.698044,-50.10619,102.8509,100.5732,26,0.05382222,-0.01027288,-0.009120528,-0.3059926,0.003177331,-0.0001862455,0.007716792,-0.0003715314,0.0008583928,0.002514203,-0.0001252104,-0.00902301,0.0.0.0,10.221.79.104,1,0
2014-11-28 14:56:40.650,67,2.233333,56.17361,10.18925,63.80597,-1,-1,96,50,1417182998,0.004165649,0.001052856,-1.010254,14.97066,8.647247,-50.05662,102.4306,100.1529,26,0.03797907,-0.005218198,-0.01137596,-0.3059977,0.003078498,-9.578924e-05,0.006551616,-0.004006203,-0.001562523,-0.001689943,0.003902013,-0.01146409,0.0.0.0,10.221.79.104,1,0
2014-11-28 14:56:40.682,68,2.266667,56.17361,10.18925,63.80597,-1,-1,96,50,1417182998,0.002502441,-0.001083374,-1.008316,15.17316,8.342422,-49.92443,102.0153,99.73757,26,0.04637282,-0.001689243,-0.002952913,-0.3059412,0.002964408,-0.0002454936,0.004002557,-0.002796373,0.005766419,0.0006977054,0.001570302,-0.01123489,0.0.0.0,10.221.79.104,1,0
2014-11-28 14:56:40.716,69,2.3,56.17361,10.18925,63.80597,-1,-1,96,50,1417182998,0.007064819,0.003631592,-1.009995,15.05501,8.528702,-49.74264,101.1994,98.92164,26,0.04536003,-0.007715444,-0.01510918,-0.3058007,0.002968863,-0.0001416548,-0.002044161,0.0009497844,0.0009676309,-0.0006342643,-0.004826103,-0.01173843,0.0.0.0,10.221.79.104,1,0
2014-11-28 14:56:40.749,70,2.333333,56.17361,10.18925,63.80597,-1,-1,96,50,1417182998,0.002502441,-0.001556396,-1.013931,14.76813,8.511749,-49.72613,100.7986,98.5209,26,0.0527266,-0.01388333,-0.0164088,-0.3058676,0.002978588,-0.0002537329,0.01030932,-0.006451623,-0.007688236,0.003887871,0.001958791,-0.01266926,0.0.0.0,10.221.79.104,1,0
2014-11-28 14:56:40.782,71,2.366667,56.17361,10.18925,63.80597,-1,-1,96,50,1417182998,0.005172729,0.0003204346,-1.007324,14.71748,8.460953,-49.7096,100.4027,98.12501,26,0.05028181,-0.006528739,-0.01881417,-0.3059629,0.00290665,-0.0001259493,0.005444062,-0.001509288,-0.005229025,6.881784e-05,-0.0002480196,-0.008060873,0.0.0.0,10.221.79.104,1,0
2014-11-28 14:56:40.816,72,2.4,56.17333,10.18942,75.75458,0,-1,192,100,1417183000,0.009841919,0.001419067,-1.00975,14.53188,8.376266,-49.75916,99.6253,97.34757,26,0.04276717,0.004476508,-0.008995625,-0.3060956,0.002904983,-0.0001784205,-0.009290305,-0.00139268,0.002236007,0.002267751,0.0001420141,-0.007328454,0.0.0.0,10.221.79.104,1,0
2014-11-28 14:56:40.849,73,2.433333,56.17333,10.18942,75.75458,0,-1,192,100,1417183000,0.001846313,0.00567627,-1.010468,14.66689,8.139191,-49.72613,99.24348,96.96576,26,0.038031,0.0009094695,-0.01745995,-0.3060271,0.003079746,-0.0003605358,-0.001979559,-0.003912429,0.003370457,0.00157419,0.001424743,-0.0119677,0.0.0.0,10.221.79.104,1,0
2014-11-28 14:56:40.882,74,2.466667,56.17333,10.18942,75.75458,0,-1,192,100,1417183000,0.004684448,0.0003356934,-1.012207,14.97064,8.173065,-49.72613,98.8662,96.58847,26,0.04293521,-0.004019509,-0.01751534,-0.3060815,0.003224088,-0.0004706201,-0.001873342,-0.007541033,-0.002714414,-0.002690024,-0.0007757959,-0.007070127,0.0.0.0,10.221.79.104,1,0
2014-11-28 14:56:40.916,75,2.5,56.17333,10.18942,75.75458,0,-1,192,100,1417183000,0.009109497,0.001449585,-1.011963,15.15627,8.190002,-49.5774,98.12515,95.84743,26,0.04649347,0.004462126,-0.0139041,-0.306073,0.002987605,-0.0004910222,0.001680972,-0.001504543,0.002112714,0.002887033,0.002225042,-0.008030706,0.0.0.0,10.221.79.104,1,0
2014-11-28 14:56:40.949,76,2.533334,56.17333,10.18942,75.75458,0,-1,192,100,1417183000,0.0004119873,0.004501343,-1.009247,15.30817,8.20694,-49.59393,97.76121,95.48348,26,0.05136305,-0.006588661,-0.009092831,-0.3060835,0.003199477,-0.0005908834,0.0005812084,-0.001446085,-0.001554173,0.001927482,0.001911558,-0.01242595,0.0.0.0,10.221.79.104,1,0
2014-11-28 14:56:40.982,77,2.566667,56.17323,10.18962,95.97113,0,-1,32,30,1417183000,0.001708984,0.0003814697,-1.006592,15.39255,8.190002,-49.74264,97.40162,95.12389,26,0.04895529,-0.008996691,-0.01028247,-0.3059981,0.002952238,-0.0005055105,-0.001963248,0.002207251,0.004558208,-0.003211633,0.0006541574,-0.01146384,0.0.0.0,10.221.79.104,1,0
2014-11-28 14:56:41.015,78,2.6,56.17323,10.18962,95.97113,0,-1,32,30,1417183000,0.009643555,-0.0002441406,-1.007584,15.3588,8.32547,-49.70959,97.04628,94.76855,26,0.05872377,-0.005427522,-0.01282499,-0.3059062,0.003052235,-0.0005500683,0.0004406401,0.00828049,0.00453177,0.004302506,0.002135479,-0.00755791,0.0.0.0,10.221.79.104,1,0
2014-11-28 14:56:41.049,79,2.633333,56.17323,10.18962,95.97113,0,-1,32,30,1417183000,0.005386353,0.001983643,-1.009277,15.27443,8.511749,-49.89137,96.3482,94.07047,26,0.04989352,0.004335626,0.004308462,-0.3060369,0.003200532,-0.0002604882,0.006872911,-0.008772534,-0.01257586,0.004444127,-1.088789e-06,-0.0105032,0.0.0.0,10.221.79.104,1,0
2014-11-28 14:56:41.082,80,2.666667,56.17323,10.18962,95.97113,0,-1,32,30,1417183000,0.005310059,0.004867554,-1.008759,15.13942,8.444,-49.75916,96.00547,93.72775,26,0.03932877,-0.01007367,-0.01869193,-0.3058794,0.003159114,-0.0003330171,0.0006082713,-0.006323502,-0.001555005,-0.003372732,-0.0008670748,-0.009755412,0.0.0.0,10.221.79.104,1,0
2014-11-28 14:56:41.116,81,2.7,56.17323,10.18962,95.97113,0,-1,32,30,1417183000,0.003936768,0.0008239746,-1.008545,14.97066,8.613358,-49.75916,95.66671,93.38898,26,0.04647935,-0.005318599,-0.00903797,-0.305858,0.003089209,-0.000476092,0.003054527,-0.003894863,0.0008240922,0.003960357,0.004116803,-0.008519289,0.0.0.0,10.221.79.104,1,0
2014-11-28 14:56:41.149,82,2.733334,56.17323,10.18962,95.97113,0,-1,32,30,1417183000,0.002548218,-0.003250122,-1.006866,14.81877,8.59642,-49.87482,95.33202,93.05429,26,0.05267173,-0.01023639,-0.0139744,-0.3057287,0.003161647,-0.0003777516,0.002889521,-0.005172675,0.01299257,0.001019267,0.000446223,-0.009526554,0.0.0.0,10.221.79.104,1,0
2014-11-28 14:56:41.182,83,2.766667,56.17323,10.18962,95.97113,0,-1,32,30,1417183000,0.005767822,-0.003051758,-1.011261,15.02127,8.291611,-49.74262,94.67442,92.39669,26,0.04406174,-0.002842392,-0.01144387,-0.3056914,0.003062134,-9.306698e-05,-0.0006500763,0.004681319,0.0008663346,0.001835942,0.001676953,-0.008549615,0.0.0.0,10.221.79.104,1,0
2014-11-28 14:56:41.216,84,2.8,56.17323,10.18962,95.97113,0,-1,32,30,1417183000,0.001647949,0.003265381,-1.00853,15.00441,8.342422,-49.72608,94.35138,92.07365,26,0.0464964,-0.00531274,-0.01025477,-0.3057097,0.002958637,6.342272e-05,0.005539882,-0.008791487,-0.000420833,-0.00236354,-0.002896782,-0.009770004,0.0.0.0,10.221.79.104,1,0
2014-11-28 14:56:41.249,85,2.833333,56.17323,10.18962,95.97113,0,-1,32,30,1417183000,0.004821777,0.004882812,-1.009491,15.22379,8.291611,-49.80871,94.0322,91.75448,26,0.04161589,-0.007707188,-0.008983907,-0.3056831,0.002827864,-9.10887e-06,0.006710217,-0.006376395,0.001999366,0.002787374,0.003424119,-0.009998505,0.0.0.0,10.221.79.104,1,0
2014-11-28 14:56:41.282,86,2.866667,56.17323,10.18962,95.97113,0,-1,32,30,1417183000,0.004714966,-0.000869751,-1.007339,15.4263,8.257751,-49.77566,93.71683,91.4391,26,0.0453768,-0.01381914,-0.01389291,-0.305739,0.002799836,-0.000153784,0.003087454,0.00101529,-0.0004152071,0.003837741,0.001341577,-0.008548853,0.0.0.0,10.221.79.104,1,0
2014-11-28 14:56:41.316,87,2.9,56.17323,10.18962,95.97113,0,-1,32,30,1417183000,0.007843018,0.002670288,-1.008774,15.46007,8.3255,-49.77564,93.09736,90.81963,26,0.04877366,0.001938515,-0.00176248,-0.3058107,0.002573957,8.830742e-05,0.01285355,0.002139482,-0.001741261,-0.0005292761,-0.002643016,-0.01344631,0.0.0.0,10.221.79.104,1,0
2014-11-28 14:56:41.350,88,2.933333,56.17323,10.18962,95.97113,0,-1,32,30,1417183000,0.008560181,0.003860474,-1.012924,15.24068,8.308563,-49.89132,92.79327,90.51554,26,0.0452503,-0.0004213121,-0.01024012,-0.3057732,0.002775788,0.0001761306,-0.00177482,-0.001371979,-0.0003612668,0.004166964,-0.001242937,-0.01027303,0.0.0.0,10.221.79.104,1,0
2014-11-28 14:56:41.382,89,2.966667,56.17323,10.18962,95.97113,0,-1,32,30,1417183000,0.006698608,-0.001144409,-1.011002,15.10565,8.173096,-49.75913,92.49277,90.21504,26,0.04889084,-0.0004652542,-0.009064335,-0.3057556,0.002978501,0.0001682815,0.00795735,-0.003923064,0.001962804,0.004101581,0.00358625,-0.01121966,0.0.0.0,10.221.79.104,1,0
2014-11-28 14:56:41.416,90,3,56.17323,10.18962,95.97113,0,-1,32,30,1417183000,0.004318237,0.005386353,-1.009491,14.71748,8.257782,-49.61042,91.90252,89.62479,26,0.04274959,-0.001639442,-0.005345763,-0.3057298,0.003135214,0.0001603123,0.003046543,0.008335419,-0.0004144098,0.001762863,0.001945591,-0.01073186,0.0.0.0,10.221.79.104,1,0
2014-11-28 14:56:41.449,91,3.033334,56.17323,10.18962,95.97113,0,-1,32,30,1417183000,0.003204346,0.0003509521,-1.009277,14.75124,8.3255,-49.57735,91.61266,89.33494,26,0.04035941,0.002068477,-0.01018526,-0.305684,0.003316931,2.366545e-05,-0.0005682703,0.001069915,0.002035268,0.001886322,-0.0006019449,-0.01270081,0.0.0.0,10.221.79.104,1,0
2014-11-28 14:56:41.482,92,3.066667,56.17323,10.18962,95.97113,0,-1,32,30,1417183000,-0.0002441406,0.0006713867,-1.009995,14.83563,8.410172,-49.36254,91.3262,89.04848,26,0.04898619,-0.01143002,-0.0114998,-0.3056573,0.003300338,-5.981661e-05,0.002969516,0.007100587,0.008079516,-0.00105729,-0.0006396506,-0.01074764,0.0.0.0,10.221.79.104,1,0
2014-11-28 14:56:41.516,93,3.1,56.17323,10.18962,95.97113,0,-1,32,30,1417183000,0.004165649,0.001541138,-1.005615,14.8694,8.579498,-49.49473,90.76347,88.48574,26,0.04271524,-0.00165116,-0.0029119,-0.3055882,0.003100371,8.753616e-05,-0.001753077,-0.005015967,0.002047644,-0.003344507,0.0007589229,-0.009999317,0.0.0.0,10.221.79.104,1,0
2014-11-28 14:56:41.549,94,3.133333,56.17323,10.18962,95.97113,0,-1,32,30,1417183000,0.007476807,-0.002624512,-1.01004,15.13942,8.47789,-49.39558,90.48702,88.2093,26,0.04410275,-0.004049869,-0.013878,-0.3055164,0.003054153,-5.05883e-05,0.006681611,-0.002694746,0.008037005,0.003812307,0.002146677,-0.01048745,0.0.0.0,10.221.79.104,1,0
2014-11-28 14:56:41.582,95,3.166667,56.17323,10.18962,95.97113,0,-1,32,30,1417183000,0.003005981,-0.001571655,-1.014175,14.81877,8.494843,-49.57734,90.21381,87.93609,26,0.04874996,0.003152117,-0.0005454154,-0.3056141,0.003198341,2.991336e-05,0.003172388,-0.001382422,-0.002874013,0.004476836,-0.0009008728,-0.01027428,0.0.0.0,10.221.79.104,1,0
2014-11-28 14:56:41.616,96,3.2,56.17323,10.18962,95.97113,0,-1,32,30,1417183000,-0.0008850098,-0.002929688,-1.008057,15.13942,8.410156,-49.65998,89.94394,87.66621,26,0.04408943,0.004499144,-0.01631053,-0.305602,0.003152439,0.0001091254,0.001966877,-0.003809165,-0.002860754,-0.0001464526,-0.00146253,-0.01418039,0.0.0.0,10.221.79.104,1,0
2014-11-28 14:56:41.649,97,3.233334,56.17323,10.18962,95.97113,0,-1,32,30,1417183000,0.006607056,0.002456665,-1.007797,15.27444,8.376312,-49.82522,89.41381,87.13609,26,0.0428183,-0.00161574,-0.01021322,-0.3056462,0.002957474,0.0001614026,0.0006987906,-0.005020955,0.00321558,-1.252354e-05,0.001488917,-0.01294384,0.0.0.0,10.221.79.104,1,0
2014-11-28 14:56:41.682,98,3.266667,56.17323,10.18962,95.97113,0,-1,32,30,1417183000,0.003219604,0.0001068115,-1.007324,15.22382,8.39325,-50.30444,89.15348,86.87576,26,0.04656164,-0.007734086,-0.01390596,-0.3056452,0.003005711,2.338187e-05,0.0007084371,-0.003794287,0.001998952,0.002853669,0.003227727,-0.01195215,0.0.0.0,10.221.79.104,1,0
2014-11-28 14:56:41.716,99,3.3,56.17323,10.18962,95.97113,0,-1,32,30,1417183000,0.003189087,0.001083374,-1.010727,15.46007,8.291641,-50.23833,88.89623,86.61851,26,0.04768523,-0.002891927,-0.009051286,-0.3056731,0.002851709,-6.331751e-05,0.004412939,-0.006260301,-0.000476009,-0.003416281,0.004453284,-0.00703837,0.0.0.0,10.221.79.104,1,0
2014-11-28 14:56:41.749,100,3.333333,56.17323,10.18962,95.97113,0,-1,32,30,1417183000,0.002822876,-0.004226685,-1.009552,15.19005,8.088409,-50.10613,88.39094,86.11321,26,0.04651371,-0.005306881,-0.01147157,-0.3056498,0.002849782,4.547092e-05,0.004392868,-0.002601693,-0.0004755612,-2.690198e-05,-0.004181214,-0.009556063,0.0.0.0,10.221.79.104,1,0
2014-11-28 14:56:41.782,101,3.366667,56.17323,10.18962,95.97113,0,-1,32,30,1417183000,0.006134033,0.001251221,-1.008041,15.00441,7.90213,-50.12264,88.14278,85.86506,26,0.0489758,-0.01265561,-0.010283,-0.3057673,0.002951605,2.406621e-05,0.006930551,0.004757276,-0.009038891,0.004921934,0.001000629,-0.0092817,0.0.0.0,10.221.79.104,1,0
2014-11-28 14:56:41.816,102,3.4,56.17323,10.18962,95.97113,0,-1,32,30,1417183000,0.002288818,-0.002288818,-1.009293,14.88628,7.986801,-50.10612,87.89767,85.61994,26,0.04640052,-0.0004577974,-0.005386509,-0.3057697,0.002861225,8.170855e-05,0.0031796,-0.006233904,0.001952454,0.002799789,0.001104047,-0.009754463,0.0.0.0,10.221.79.104,1,0
2014-11-28 14:56:41.849,103,3.433333,56.17323,10.18962,95.97113,0,-1,32,30,1417183000,0.004623413,0.003463745,-1.012192,14.98753,7.986801,-49.84173,87.65544,85.37772,26,0.0538366,-0.0004921522,-0.01398639,-0.3056744,0.002832845,0.0001914848,0.001971266,-0.004996245,0.0007491726,0.002126266,-0.0006782662,-0.008320071,0.0.0.0,10.221.79.104,1,0
2014-11-28 14:56:41.882,104,3.466667,56.17323,10.18962,95.97113,0,-1,32,30,1417183000,0.003189087,0.001068115,-1.007324,14.9538,8.359375,-49.5443,87.17953,84.9018,26,0.05013081,0.001973136,-0.01151125,-0.3056974,0.002947829,0.0002546183,-0.002936734,-0.002511149,0.002021021,0.004635794,0.003413188,-0.01340159,0.0.0.0,10.221.79.104,1,0
2014-11-28 14:56:41.916,105,3.5,56.17323,10.18962,95.97113,0,-1,32,30,1417183000,0.003692627,0.0005950928,-1.009521,14.90315,8.444061,-49.46168,86.94579,84.66807,26,0.04883545,-0.002928412,-0.004197142,-0.3056813,0.003191683,0.000253743,0.004447007,-0.002562527,-0.002928272,0.002591404,0.006570882,-0.01022851,0.0.0.0,10.221.79.104,1,0
2014-11-28 14:56:41.948,106,3.533334,56.17323,10.18962,95.97113,0,-1,32,30,1417183000,0.0005950928,0.006408691,-1.009979,14.97066,8.342438,-49.39558,86.71486,84.43713,26,0.04647216,-0.01020896,-0.006604906,-0.3055678,0.003123932,0.0003163273,-0.004239051,-8.193112e-05,0.006902724,-0.002147364,0.0009571964,-0.008305711,0.0.0.0,10.221.79.104,1,0
2014-11-28 14:56:41.982,107,3.566667,56.17323,10.18962,95.97113,0,-1,32,30,1417183000,0.0009307861,0.002578735,-1.012421,14.98753,8.190033,-49.64344,86.26094,83.98322,26,0.0404931,-0.006439257,-0.01627112,-0.3054912,0.002833979,8.502502e-06,-0.001701822,-5.116267e-05,0.0007705546,-0.001903189,0.002587238,-0.01242467,0.0.0.0,10.221.79.104,1,0
2014-11-28 14:56:42.016,108,3.6,56.17323,10.18962,95.97113,0,-1,32,30,1417183000,0.009506226,-0.005554199,-1.006882,14.81876,8.156158,-49.74259,86.03798,83.76025,26,0.04290406,-0.007696003,-0.01386495,-0.3055177,0.002689106,-1.669926e-05,-0.004071847,-0.01833131,0.003228855,0.001568099,-0.002320776,-0.0110052,0.0.0.0,10.221.79.104,1,0
2014-11-28 14:56:42.049,109,3.633333,56.17323,10.18962,95.97113,0,-1,32,30,1417183000,0.001922607,0.002548218,-1.009506,15.00441,8.20694,-50.02351,85.81768,83.53996,26,0.04412006,-0.00404401,-0.01509506,-0.305597,0.002735361,8.72532e-05,0.002036639,0.001161251,-0.005354811,0.002437372,0.000895969,-0.01025765,0.0.0.0,10.221.79.104,1,0
2014-11-28 14:56:42.082,110,3.666667,56.17334,10.18954,78.40588,0,-1,24,10,1417183002,0.00138855,0.003753662,-1.012421,14.95377,8.3255,-49.94088,85.60004,83.32231,26,0.04414056,-0.007702927,-0.0150956,-0.3054896,0.002711205,-0.0001310649,0.001911616,0.004784925,0.001946941,-0.0004681598,0.00963456,-0.009464134,0.0.0.0,10.221.79.104,1,0
2014-11-28 14:56:42.116,111,3.7,56.17334,10.18954,78.40588,0,-1,24,10,1417183002,0.006393433,0.001495361,-1.008301,14.88626,8.528717,-50.23832,85.38498,83.10725,26,0.04529105,-0.007739146,-0.01024145,-0.3055641,0.002501824,-0.000228887,0.0117057,-0.002634724,0.001836588,-0.000548696,0.0008850046,-0.01170665,0.0.0.0,10.221.79.104,1,0
2014-11-28 14:56:42.149,112,3.733334,56.17334,10.18954,78.40588,0,-1,24,10,1417183002,0.004821777,-0.005233765,-1.007858,15.24068,8.545639,-50.08961,84.96251,82.68478,26,0.0464932,-0.001647964,-0.01147103,-0.305568,0.002610156,-6.200177e-05,0.003186855,0.002375666,-0.0005216488,0.004118973,-0.002411855,-0.0122257,0.0.0.0,10.221.79.104,1,0
2014-11-28 14:56:42.184,113,3.766667,56.17334,10.18954,78.40588,0,-1,24,10,1417183002,-0.0003204346,0.00402832,-1.006805,15.24068,8.545639,-50.08961,84.96251,82.68478,26,0.0427946,-0.000401871,-0.008996158,-0.305565,0.002752354,0.0001542072,0.006910913,-8.292689e-05,-0.004214162,0.003976776,-0.002668669,-0.01247023,0.0.0.0,10.221.79.104,1,0
2014-11-28 14:56:42.217,114,3.8,56.17334,10.18954,78.40588,0,-1,24,10,1417183002,0.006973267,0.007980347,-1.007278,15.24068,8.545639,-50.08961,84.96251,82.68478,26,0.04903838,-0.00530262,-0.01758352,-0.3055799,0.00268033,6.230302e-05,0.0007425354,-0.002488443,0.001938453,-0.0005135791,0.002854661,-0.01340081,0.0.0.0,10.221.79.104,1,0
2014-11-28 14:56:42.249,115,3.833333,56.17334,10.18954,78.40588,0,-1,24,10,1417183002,0.004989624,-0.001846313,-1.008804,14.8188,8.93515,-50.17222,84.14736,81.86964,26,0.04521275,0.00323148,-0.00902279,-0.3056876,0.002723861,-9.467283e-05,0.003165856,-7.436806e-05,0.001911196,0.0008924758,0.004101494,-0.007312674,0.0.0.0,10.221.79.104,1,0
2014-11-28 14:56:42.282,116,3.866667,56.17334,10.18954,78.40588,0,-1,24,10,1417183002,0.005691528,7.629395e-05,-1.011475,15.05507,8.867416,-50.37052,83.94968,81.67195,26,0.04895876,-0.01266147,-0.009066199,-0.3056448,0.002806047,-0.0001605918,-0.0004756212,-0.006139603,0.003168155,0.0003983022,0.0006939003,-0.01367582,0.0.0.0,10.221.79.104,1,0
2014-11-28 14:56:42.315,117,3.9,56.17334,10.18954,78.40588,0,-1,24,10,1417183002,0.004776001,-0.00352478,-1.005386,14.95381,8.901276,-50.00698,83.7543,81.47657,26,0.04886315,-0.001696966,-0.006630738,-0.3056431,0.002884148,-3.94594e-06,-0.006562541,-0.001162996,0.0007878519,0.001281505,0.001064169,-0.01268421,0.0.0.0,10.221.79.104,1,0
2014-11-28 14:56:42.348,118,3.933334,56.17334,10.18954,78.40588,0,-1,24,10,1417183002,0.003631592,0.003494263,-1.011215,14.93695,8.918213,-49.89132,83.37047,81.09274,26,0.0501681,-0.007789746,-0.01029605,-0.3056858,0.002949157,6.557431e-05,0.002017506,-1.422467e-05,-0.002958216,0.001674261,0.00326992,-0.009266436,0.0.0.0,10.221.79.104,1,0
2014-11-28 14:56:42.383,119,3.966667,56.17334,10.18954,78.40588,0,-1,24,10,1417183002,0.002548218,0.007354736,-1.010681,15.13947,8.748871,-49.49474,83.18204,80.90431,26,0.04892813,-0.004118312,-0.01028193,-0.3056839,0.003145444,4.593006e-05,0.000790805,-0.004890736,-0.0005113594,0.006650703,0.003143464,-0.008778752,0.0.0.0,10.221.79.104,1,0
2014-11-28 14:56:42.416,120,4,56.17334,10.18954,78.40588,0,-1,24,10,1417183002,-0.0005187988,0.002838135,-1.008514,15.03821,9.05368,-49.46168,82.99586,80.71813,26,0.04763383,0.003200321,-0.007833422,-0.3055646,0.003079367,-6.137428e-05,0.01293393,-0.002589957,0.001785987,-0.0001191572,0.0005337185,-0.004643415,0.0.0.0,10.221.79.104,1,0
2014-11-28 14:56:42.450,121,4.033334,56.17334,10.18954,78.40588,0,-1,24,10,1417183002,0.003555298,-0.003738403,-1.010529,15.03819,9.05368,-49.82522,82.62997,80.35225,26,0.05026077,-0.008979646,-0.01638057,-0.3054646,0.002977736,-0.000125103,-0.005410242,0.001246196,0.00442509,-0.002031687,0.001736469,-0.01099077,0.0.0.0,10.221.79.104,1,0
2014-11-28 14:56:42.482,122,4.066667,56.17334,10.18954,78.40588,0,-1,24,10,1417183002,0.00592041,0.000793457,-1.009521,14.7513,8.90126,-49.84174,82.45022,80.17249,26,0.0489726,-0.008990832,-0.01149926,-0.3055668,0.002959806,7.80668e-05,0.004486106,-0.006110101,-0.003004198,0.0007175664,0.001161441,-0.01073131,0.0.0.0,10.221.79.104,1,0
2014-11-28 14:56:42.516,123,4.1,56.17334,10.18954,78.40588,0,-1,24,10,1417183002,0.003387451,0.003250122,-1.012924,14.5994,8.850449,-49.85825,82.27264,79.99492,26,0.04638667,0.001981392,-0.005386243,-0.305506,0.00290523,5.285414e-05,0.0006466448,-0.001246418,0.007989265,0.002496385,0.001334592,-0.01536982,0.0.0.0,10.221.79.104,1,0
2014-11-28 14:56:42.549,124,4.133334,56.17334,10.18954,78.40588,0,-1,24,10,1417183002,0.006637573,0.001022339,-1.014389,14.51503,8.664169,-49.70954,82.09719,79.81947,26,0.04646923,-0.0004340952,-0.01025397,-0.3054838,0.002942514,-0.0001751045,0.009300519,-0.001293537,-0.0006245609,0.0006738235,0.003792181,-0.01292854,0.0.0.0,10.221.79.104,1,0
2014-11-28 14:56:42.582,125,4.166667,56.17334,10.18954,78.40588,0,-1,24,10,1417183002,0.004348755,0.003692627,-1.010239,14.65004,8.562561,-49.64344,81.7523,79.47458,26,0.05258944,-0.007820905,-0.009106679,-0.3054953,0.003159596,-0.0001728498,-0.0004467322,0.003698557,-0.002948493,0.0004567423,0.003535036,-0.007802248,0.0.0.0,10.221.79.104,1,0
2014-11-28 14:56:42.616,126,4.2,56.17334,10.18954,78.40588,0,-1,24,10,1417183002,0.0004882812,0.001617432,-1.00705,15.00443,8.647232,-49.65998,81.58298,79.30525,26,0.04773317,-0.005319398,-0.01148515,-0.3053838,0.003286949,-0.000195487,-0.005365785,-0.001151747,0.001972699,0.004540815,0.002703683,-0.01048821,0.0.0.0,10.221.79.104,1,0
2014-11-28 14:56:42.649,127,4.233334,56.17334,10.18954,78.40588,0,-1,24,10,1417183002,0.005111694,0.002960205,-1.009995,15.12257,8.630295,-49.90784,81.41555,79.13783,26,0.04653022,-0.01141058,-0.01025583,-0.305396,0.003252695,-0.0002036445,0.004456978,0.003686753,-0.005453924,0.00216418,0.0003609307,-0.0117088,0.0.0.0,10.221.79.104,1,0
2014-11-28 14:56:42.684,128,4.266667,56.17334,10.18954,78.40588,0,-1,24,10,1417183002,0.005889893,0.001983643,-1.00975,15.32509,8.460938,-49.67651,81.08669,78.80897,26,0.05013374,-0.007801464,-0.007862451,-0.3053556,0.003122789,-0.0001680424,-0.0004481046,-0.009713214,0.001900066,0.001805805,0.0001523922,-0.01001466,0.0.0.0,10.221.79.104,1,0
2014-11-28 14:56:42.716,129,4.3,56.17334,10.18954,78.40588,0,-1,24,10,1417183002,0.003250122,-0.001571655,-1.011978,15.07193,8.579483,-49.75912,80.92516,78.64744,26,0.04772332,-0.0004348942,-0.01270141,-0.3052703,0.003207613,-0.0001033692,-0.001697751,-0.001156617,0.0006978681,0.002682285,0.001880273,-0.009755515,0.0.0.0,10.221.79.104,1,0
2014-11-28 14:56:42.749,130,4.333333,56.17334,10.18954,78.40588,0,-1,24,10,1417183002,0.001693726,0.001602173,-1.010986,15.07193,8.579483,-49.85827,80.76556,78.48783,26,0.04656164,-0.007734086,-0.01390596,-0.3052946,0.00317651,-0.0001960781,-0.0004891997,-0.002394533,0.001900996,-0.00209313,0.007189176,-0.0123952,0.0.0.0,10.221.79.104,1,0
2014-11-28 14:56:42.782,131,4.366667,56.17334,10.18954,78.40588,0,-1,24,10,1417183002,0.003463745,-0.0001220703,-1.008804,15.12254,8.664154,-49.94088,80.45209,78.17436,26,0.04895609,-0.002887133,-0.01271553,-0.3053723,0.00312091,-0.0001126868,0.00560021,0.004872052,-0.0005998141,0.0007243103,0.004312362,-0.01024352,0.0.0.0,10.221.79.104,1,0
2014-11-28 14:56:42.815,132,4.4,56.17334,10.18954,78.40588,0,-1,24,10,1417183002,0.003387451,0.003234863,-1.008286,15.07191,8.714966,-49.85827,80.29817,78.02045,26,0.04523326,-0.000427171,-0.009023323,-0.3053656,0.003185355,-0.0001011364,0.002063543,9.155859e-05,-0.007876629,0.002857131,0.004995299,-0.009984327,0.0.0.0,10.221.79.104,1,0
2014-11-28 14:56:42.850,133,4.433333,56.17334,10.18954,78.40588,0,-1,24,10,1417183002,0.003875732,0.002975464,-1.010239,15.20692,8.613373,-49.95741,80.14613,77.8684,26,0.04282843,-0.006499977,-0.008997223,-0.305287,0.00309955,-0.0001303957,0.001887546,-0.002413039,0.005508867,-0.001604184,-0.0009391116,-0.006352468,0.0.0.0,10.221.79.104,1,0
2014-11-28 14:56:42.883,134,4.466667,56.17334,10.18954,78.40588,0,-1,24,10,1417183002,0.005950928,-0.0003967285,-1.011246,15.12253,8.528702,-49.74259,79.99587,77.71815,26,0.05013055,-0.004136688,-0.009078716,-0.3052137,0.003135085,-0.000252472,-0.001800673,0.006168141,0.004334322,-0.0002053922,0.001792206,-0.01489752,0.0.0.0,10.221.79.104,1,0
2014-11-28 14:56:42.916,135,4.5,56.17334,10.18954,78.40588,0,-1,24,10,1417183002,-0.001754761,0.002151489,-1.012924,14.88626,8.393219,-49.74259,79.70052,77.4228,26,0.05255509,-0.007832889,-0.006672816,-0.3051692,0.003262623,-9.70036e-05,0.01167612,0.003608231,0.00053288,0.001910113,0.0002386898,-0.01294478,0.0.0.0,10.221.79.104,1,0
2014-11-28 14:56:42.949,136,4.533334,56.17334,10.18954,78.40588,0,-1,24,10,1417183002,0.0004577637,0.002578735,-1.008759,14.83565,8.274689,-49.99046,79.55544,77.27772,26,0.04517467,0.0007744472,-0.005372661,-0.3050144,0.003234362,5.101123e-05,0.005566522,9.077063e-07,0.003034316,0.003220111,-0.001093398,-0.01172398,0.0.0.0,10.221.79.104,1,0
2014-11-28 14:56:42.982,137,4.566667,56.17334,10.18954,78.40588,0,-1,24,10,1417183002,0.003936768,0.000579834,-1.006332,14.98753,8.223862,-49.97395,79.41199,77.13427,26,0.03787228,-0.007698666,-0.002858371,-0.3049567,0.003299508,-1.033513e-05,-0.0005802162,0.009853791,0.001871415,0.00234625,0.002232707,-0.01169368,0.0.0.0,10.221.79.104,1,0
2014-11-28 14:56:43.016,138,4.6,56.17322,10.18941,61.70972,0,-1,16,10,1417183002,0.006668091,3.051758e-05,-1.003906,15.05504,8.054504,-49.80871,79.13,76.85227,26,0.04159937,0.004506601,-0.0126327,-0.3048522,0.003303958,-9.2849e-05,-0.004317462,0.002532749,0.01042967,-0.001884885,0.002455369,-0.009008148,0.0.0.0,10.221.79.104,1,0
2014-11-28 14:56:43.048,139,4.633334,56.17322,10.18941,61.70972,0,-1,16,10,1417183002,0.005889893,0.00177002,-1.010986,15.05504,8.020645,-49.61042,78.99135,76.71362,26,0.05142884,-0.002900449,-0.01517682,-0.3048458,0.003388972,-3.003596e-05,0.006930219,-0.003596229,-0.006731259,0.003279125,4.816187e-07,-0.003911993,0.0.0.0,10.221.79.104,1,0
2014-11-28 14:56:43.083,140,4.666667,56.17322,10.18941,61.70972,0,-1,16,10,1417183002,0.001708984,0.0003814697,-1.007568,15.05504,8.122253,-49.51127,78.8544,76.57668,26,0.04528146,0.003255182,-0.01389025,-0.304853,0.003532691,9.17588e-05,0.006769279,0.003680308,0.001788128,-0.002998626,-0.000213417,-0.007071063,0.0.0.0,10.221.79.104,1,0
2014-11-28 14:56:43.116,141,4.7,56.17322,10.18941,61.70972,0,-1,16,10,1417183002,0.005691528,7.629395e-05,-1.012436,14.92003,8.156128,-49.51127,78.7191,76.44138,26,0.04406174,-0.002842392,-0.01144387,-0.3048656,0.003520028,9.530089e-05,0.005601463,-0.002399701,0.0005842852,-0.001505861,-0.001461096,-0.01027536,0.0.0.0,10.221.79.104,1,0
2014-11-28 14:56:43.149,142,4.733334,56.17322,10.18941,61.70972,0,-1,16,10,1417183002,0.00567627,0.0003204346,-1.01123,15.24066,8.410141,-49.62695,78.45336,76.17564,26,0.0464964,-0.00531274,-0.01025477,-0.3049304,0.003521312,0.0001300655,0.003165435,0.003769804,-0.00305314,-0.0003322184,0.001686462,-0.01001597,0.0.0.0,10.221.79.104,1,0
2014-11-28 14:56:43.182,143,4.766667,56.17322,10.18941,61.70972,0,-1,16,10,1417183002,-0.0002288818,-3.051758e-05,-1.010727,15.27441,8.545624,-49.89133,78.32291,76.04519,26,0.04531209,-0.005288239,-0.01267478,-0.304864,0.003535625,7.19103e-05,0.0006792371,0.000112442,0.001841137,-0.003764499,4.139272e-05,-0.01073318,0.0.0.0,10.221.79.104,1,0
2014-11-28 14:56:43.216,144,4.8,56.17322,10.18941,61.70972,0,-1,16,10,1417183002,0.003845215,0.004653931,-1.010468,15.37567,8.647217,-49.89133,78.19398,75.91625,26,0.04535976,-0.01382527,-0.01267611,-0.3048642,0.003500227,0.0001109874,-0.001742262,0.0001437351,0.0006514344,-6.699217e-05,0.001179103,-0.009527616,0.0.0.0,10.221.79.104,1,0
2014-11-28 14:56:43.250,145,4.833333,56.17322,10.18941,61.70972,0,-1,16,10,1417183002,0.004150391,0.00227356,-1.012192,15.37567,8.952042,-49.89135,78.0666,75.78887,26,0.05745291,-0.005432316,-0.009160741,-0.3049353,0.003386442,1.465143e-05,0.003096634,0.003746325,0.001814106,0.001725259,0.002974856,-0.01000024,0.0.0.0,10.221.79.104,1,0
2014-11-28 14:56:43.282,146,4.866667,56.17322,10.18941,61.70972,0,-1,16,10,1417183002,0.002700806,0.0003662109,-1.009018,15.08878,8.833481,-50.00701,77.8164,75.53867,26,0.03788986,-0.001582983,-0.006507967,-0.304923,0.003343757,-7.910452e-05,0.0007324971,-0.003533976,-0.0005932007,0.002469848,0.00503259,-0.01047312,0.0.0.0,10.221.79.104,1,0
2014-11-28 14:56:43.316,147,4.9,56.17322,10.18941,61.70972,0,-1,16,10,1417183002,0.002883911,0.003967285,-1.011459,15.25754,8.968964,-49.84176,77.6935,75.41577,26,0.0476815,-0.005336975,-0.007834754,-0.3048456,0.003253578,-6.42589e-06,0.009230737,6.181336e-05,-0.0007009992,0.000194914,0.0008328075,-0.008550215,0.0.0.0,10.221.79.104,1,0
2014-11-28 14:56:43.349,148,4.933333,56.17322,10.18941,61.70972,0,-1,16,10,1417183002,0.003707886,0.0001220703,-1.010986,15.12253,8.833481,-49.67652,77.57199,75.29427,26,0.0488975,-0.001684982,-0.009064602,-0.3048341,0.003122429,-4.510504e-05,0.001972409,-0.007174082,-0.001837449,0.001531507,0.001724915,-0.004887688,0.0.0.0,10.221.79.104,1,0
2014-11-28 14:56:43.387,149,4.966667,56.17322,10.18941,61.70972,0,-1,16,10,1417183002,0.003768921,-0.002532959,-1.016632,14.97064,8.850403,-49.46171,77.33327,75.05555,26,0.05257213,-0.007826764,-0.007889881,-0.3048754,0.003120355,0.0001091992,0.003184928,-0.005966651,-0.00185082,0.002571178,0.0009331739,-0.01733886,0.0.0.0,10.221.79.104,1,0
2014-11-28 14:56:43.416,150,5,56.17322,10.18941,61.70972,0,-1,16,10,1417183002,0.004455566,-0.0008544922,-1.009033,15.10565,8.714935,-49.66,77.21609,74.93836,26,0.04043158,-0.001572597,-0.01383645,-0.3048046,0.003212247,0.0001959941,0.0006168794,0.005011885,0.003045592,-0.0002367771,7.392382e-05,-0.006123953,0.0.0.0,10.221.79.104,1,0
2014-11-28 14:56:43.449,151,5.033334,56.17322,10.18941,61.70972,0,-1,16,10,1417183002,-0.0009613037,-3.051758e-05,-1.009521,14.85249,8.291565,-49.57738,77.10022,74.82249,26,0.04161615,-0.001597364,-0.01141644,-0.3048623,0.003330034,6.18395e-05,0.003126758,-0.004764509,0.001799691,-0.0005224108,0.007386058,-0.01021368,0.0.0.0,10.221.79.104,1,0
2014-11-28 14:56:43.483,152,5.066667,56.17322,10.18941,61.70972,0,-1,16,10,1417183002,0.003570557,0.005889893,-1.010468,14.9875,8.020615,-49.5774,76.87265,74.59492,26,0.04900403,-0.005314338,-0.01514966,-0.3047987,0.003040485,6.449147e-05,0.004320692,-0.001083969,0.0005564754,-0.003772902,0.0009952775,-0.0121964,0.0.0.0,10.221.79.104,1,0
2014-11-28 14:56:43.516,153,5.1,56.17322,10.18941,61.70972,0,-1,16,10,1417183002,0.003265381,-0.001815796,-1.006348,15.05501,8.189972,-49.64349,76.76085,74.48312,26,0.04409929,-0.006495184,-0.01266147,-0.3048318,0.003080708,-6.34911e-05,0.004395774,-0.002279649,-0.004311297,0.000489854,0.005826402,-0.01047228,0.0.0.0,10.221.79.104,1,0
2014-11-28 14:56:43.550,154,5.133334,56.17322,10.18941,61.70972,0,-1,16,10,1417183002,0.005020142,-0.003295898,-1.009552,14.68373,8.223846,-49.313,76.65044,74.37271,26,0.0440375,-0.001628523,-0.0102268,-0.3048058,0.002923417,-7.148035e-05,-0.0005705475,-0.004703782,0.003043983,-0.002755567,0.004429862,-0.009495242,0.0.0.0,10.221.79.104,1,0
2014-11-28 14:56:43.584,155,5.166667,56.17322,10.18941,61.70972,0,-1,16,10,1417183002,0.002243042,-0.0003356934,-1.011719,14.6331,8.342392,-49.23038,76.54132,74.2636,26,0.04538107,0.0008455536,-0.01997531,-0.304787,0.003063638,1.117311e-05,0.000701368,0.001411684,-0.003052842,0.001803921,0.003459659,-0.009266778,0.0.0.0,10.221.79.104,1,0
2014-11-28 14:56:43.616,156,5.2,56.17322,10.18941,61.70972,0,-1,16,10,1417183002,0.003204346,0.0005950928,-1.007324,14.51497,8.833511,-49.61045,76.32684,74.04911,26,0.04891135,0.001985653,-0.01149767,-0.3048012,0.003140257,8.448545e-05,0.001848102,-0.001069337,0.003016972,0.004748542,0.0003438849,-0.009282278,0.0.0.0,10.221.79.104,1,0
2014-11-28 14:56:43.649,157,5.233334,56.17322,10.18941,61.70972,0,-1,16,10,1417183002,0.001235962,0.0008850098,-1.008789,14.68373,8.528671,-49.54435,76.22152,73.94379,26,0.04407532,-0.005281581,-0.01144414,-0.304837,0.00315427,0.0002824351,0.006784119,0.003787697,-0.003121168,-0.0004229418,-5.325825e-05,-0.01270033,0.0.0.0,10.221.79.104,1,0
2014-11-28 14:56:43.682,158,5.266667,56.17322,10.18941,61.70972,0,-1,16,10,1417183002,0.003616333,0.003723145,-1.011459,14.71748,8.664154,-49.6435,76.11748,73.83975,26,0.04527747,-0.005299957,-0.01024092,-0.3047871,0.003058536,0.0003081651,0.00431347,-0.001047578,-0.0006742916,-0.0008917832,0.002856383,-0.01292892,0.0.0.0,10.221.79.104,1,0
2014-11-28 14:56:43.716,159,5.3,56.17322,10.18941,61.70972,0,-1,16,10,1417183002,0.001312256,-0.002487183,-1.012466,14.95375,8.799622,-50.33752,75.91304,73.63531,26,0.04396559,0.002012551,-0.006575611,-0.3046968,0.003141964,8.694657e-05,-0.00188326,0.001426189,0.005478623,0.00644056,0.002726717,-0.008290462,0.0.0.0,10.221.79.104,1,0
2014-11-28 14:56:43.749,160,5.333333,56.17322,10.18941,61.70972,0,-1,16,10,1417183002,0.000793457,-0.00201416,-1.008057,15.02127,8.528671,-50.27143,75.81256,73.53484,26,0.03916685,-0.008906942,-0.007739679,-0.3046267,0.003267227,0.0002609812,0.009208056,-0.001091312,-0.001946075,0.0002880764,-0.003721563,-0.009313233,0.0.0.0,10.221.79.104,1,0
2014-11-28 14:56:43.782,161,5.366667,56.17322,10.18941,61.70972,0,-1,16,10,1417183002,0.004455566,-0.0008544922,-1.007828,14.76814,8.545624,-50.0566,75.71329,73.43557,26,0.04402365,-0.005299158,-0.007793741,-0.3045947,0.003147669,0.0002520398,-0.004329784,0.01244607,0.001856851,0.0005449633,0.0008623913,-0.01170848,0.0.0.0,10.221.79.104,1,0
2014-11-28 14:56:43.816,162,5.4,56.17322,10.18941,61.70972,0,-1,16,10,1417183002,0.002670288,0.002044678,-1.008041,14.9369,8.477875,-49.89137,75.61517,73.33744,26,0.04654753,-0.01140472,-0.01147263,-0.3045626,0.003054958,0.0002113809,0.005399683,0.001339434,0.007830537,0.003399515,-0.00142131,-0.01245586,0.0.0.0,10.221.79.104,1,0
2014-11-28 14:56:43.849,163,5.433333,56.17322,10.18941,61.70972,0,-1,16,10,1417183002,0.002487183,-0.0008087158,-1.012222,14.76814,8.206924,-49.19733,75.42245,73.14472,26,0.04894863,-0.007777229,-0.01028247,-0.3045115,0.003116855,1.81294e-05,-0.0006300453,0.0002402043,0.001801488,-0.0004465615,0.002062807,-0.00804624,0.0.0.0,10.221.79.104,1,0
2014-11-28 14:56:43.882,164,5.466667,56.17322,10.18941,61.70972,0,-1,16,10,1417183002,0.003723145,-0.0006103516,-1.009766,14.76814,8.477875,-49.36256,75.32777,73.05004,26,0.0488975,-0.001684982,-0.009064602,-0.3044631,0.003063749,0.0002319079,0.005414855,-0.005950377,0.007816958,-0.0005765616,-0.0005768079,-0.01222701,0.0.0.0,10.221.79.104,1,0
2014-11-28 14:56:43.915,165,5.5,56.17322,10.18941,61.70972,0,-1,16,10,1417183002,0.004394531,0.002258301,-1.010483,14.9369,8.444016,-49.36257,75.23415,72.95643,26,0.03666401,0.005759352,-0.008927182,-0.304447,0.00300102,0.0002845635,0.005507643,-0.007139828,0.001732091,0.003377158,0.002024065,-0.009526028,0.0.0.0,10.221.79.104,1,0
2014-11-28 14:56:43.952,166,5.533334,56.17322,10.18941,61.70972,0,-1,16,10,1417183002,0.002166748,0.0027771,-1.009735,14.90315,8.511765,-49.95744,75.05022,72.77249,26,0.04169179,-0.00279339,-0.01628443,-0.3043442,0.003122708,0.000155696,-0.0006161662,-0.002197681,0.001800978,0.0007835467,0.002413997,-0.009511113,0.0.0.0,10.221.79.104,1,0
2014-11-28 14:56:43.992,167,5.566667,56.17322,10.18941,52.23785,0,-1,16,10,1417183003,0.005340576,0.003662109,-1.009262,14.90315,8.511765,-49.95744,75.05022,72.77249,26,0.04401699,0.002030394,-0.01022627,-0.3043921,0.003149113,0.0001243287,0.006815952,0.001432451,-0.008015787,0.002435609,0.004747742,-0.01022835,0.0.0.0,10.221.79.104,1,0
2014-11-28 14:56:44.017,168,5.6,56.17322,10.18941,52.23785,0,-1,16,10,1417183003,0.005905151,0.001037598,-1.014389,15.19005,8.765778,-49.9409,74.8707,72.59298,26,0.04412645,-0.01137356,-0.01266227,-0.3044335,0.003208466,7.863757e-05,-0.002948881,-0.008204425,-0.005488092,0.0002095085,0.002108057,-0.009755516,0.0.0.0,10.221.79.104,1,0
2014-11-28 14:56:44.049,169,5.633334,56.17322,10.18941,52.23785,0,-1,16,10,1417183003,0.004959106,-0.0003814697,-1.012222,15.30818,8.918198,-50.02351,74.78259,72.50486,26,0.04042066,-0.008908007,-0.01018686,-0.3043578,0.003152315,1.909714e-05,-0.002014113,0.002682827,0.01031982,-0.004449307,0.003345513,-0.009251795,0.0.0.0,10.221.79.104,1,0
2014-11-28 14:56:44.084,170,5.666667,56.17322,10.18941,52.23785,0,-1,16,10,1417183003,0.0009307861,0.002563477,-1.009506,15.27443,8.918213,-49.75913,74.60947,72.33174,26,0.05135586,-0.01147902,-0.006659767,-0.3043005,0.003033271,-2.79817e-05,0.001777722,0.0002465532,0.001759812,-0.0005155661,-0.001828519,-0.008808922,0.0.0.0,10.221.79.104,1,0
2014-11-28 14:56:44.116,171,5.7,56.17322,10.18941,52.23785,0,-1,16,10,1417183003,0.005096436,0.003692627,-1.011459,15.4263,8.765793,-49.77566,74.52437,72.24664,26,0.04768869,-0.0004466121,-0.01026755,-0.3042582,0.002909078,2.773597e-05,0.004250179,-0.005876728,0.001731776,0.0003715657,-0.002749364,-0.008823812,0.0.0.0,10.221.79.104,1,0
2014-11-28 14:56:44.149,172,5.733334,56.17322,10.18941,52.23785,0,-1,16,10,1417183003,0.007110596,0.001724243,-1.008041,15.27443,8.477921,-49.69305,74.44027,72.16254,26,0.04770547,-0.006550577,-0.009051818,-0.3042671,0.00307413,7.775489e-05,0.0006134844,-0.003386779,-0.0006605883,0.006096407,-0.001127689,-0.01100632,0.0.0.0,10.221.79.104,1,0
2014-11-28 14:56:44.182,173,5.766667,56.17322,10.18941,52.23785,0,-1,16,10,1417183003,0.004394531,0.001785278,-1.00975,15.05504,8.596466,-49.70957,74.35717,72.07944,26,0.04771586,-0.005325257,-0.01026835,-0.3042758,0.003092604,-6.350397e-05,-0.006673033,-0.008146459,-0.003027269,0.003514457,0.002637302,-0.008290307,0.0.0.0,10.221.79.104,1,0
2014-11-28 14:56:44.216,174,5.8,56.17322,10.18941,52.23785,0,-1,16,10,1417183003,0.00668335,-0.0004119873,-1.013199,15.22382,8.223907,-49.44518,74.19395,71.91622,26,0.04521861,-0.0102079,-0.004157194,-0.3041313,0.002952296,-7.845447e-05,-0.005601789,-0.003322002,0.00547797,0.001655863,0.003858313,-0.01266916,0.0.0.0,10.221.79.104,1,0
