time,timestamp,recordtime,lat,long,alt,speed,course,verticalAccuracy,horizontalAccuracy,locTimeStamp,accelerationX,accelerationY,accelerationZ,HeadingX,HeadingY,HeadingZ,TrueHeading,MagneticHeading,HeadingAccuracy,RotationX,RotationY,RotationZ,motionYaw,motionRoll,motionPitch,motionRotationRateX,motionRotationRateY,motionRotationRateZ,motionUserAccelerationX,motionUserAccelerationY,motionUserAccelerationZ,en0,pdp_ip0,DeviceOrientation,State
2014-11-28 13:02:32.814,1,0.03333334,56.16951,10.18855,58.41663,-1,-1,24.39122,1414,1417176145,0.4284363,-0.4824371,-0.9237366,16.20619,-30.06561,-31.62572,177.9557,175.6774,20,-0.118745,-0.8036195,-0.2506032,0.2682013,0.4824305,0.3599572,-0.1825473,-0.5454006,-0.245116,-0.02970575,-0.1113583,-0.01492841,0.0.0.0,10.205.173.28,1,0
2014-11-28 13:02:32.849,2,0.06666667,56.16951,10.18855,58.41663,-1,-1,24.39122,1414,1417176145,0.3706818,-0.5227509,-0.9220123,16.2737,-30.09947,-31.89011,178.4727,176.1944,20,-0.3965513,-0.5685005,-0.3521098,0.2634345,0.4597645,0.3514954,-0.2014427,-0.8488201,-0.2546656,0.02104605,-0.1530123,-0.08614052,0.0.0.0,10.205.173.28,1,0
2014-11-28 13:02:32.880,3,0.1,56.16951,10.18855,58.41663,-1,-1,24.39122,1414,1417176145,0.4346161,-0.3138885,-1.006149,15.90244,-29.55756,-32.48501,179.8274,177.5491,20,-0.8368875,-0.5821769,-0.843601,0.2522285,0.436744,0.3181905,-0.7449782,-0.4141119,-0.6938596,0.008596154,-0.03216808,-0.02410176,0.0.0.0,10.205.173.28,1,0
2014-11-28 13:02:32.916,4,0.1333333,56.16951,10.18855,58.41663,-1,-1,24.39122,1414,1417176145,0.4070587,-0.1706238,-1.017899,15.96994,-28.54149,-33.67478,181.8391,179.5608,20,-0.5668703,0.2949432,-0.9742981,0.2363747,0.4250063,0.2822521,-0.7353613,-0.3066568,-0.9847511,0.07295264,0.02819888,-0.2911507,0.0.0.0,10.205.173.28,1,0
2014-11-28 13:02:32.948,5,0.1666667,56.16951,10.18855,58.41663,-1,-1,24.39122,1414,1417176145,0.3251801,-0.07099915,-0.8651276,16.18933,-27.81329,-33.92265,183.6661,181.3878,20,0.08607657,1.609093,-0.7722123,0.2228219,0.4394841,0.2636947,-0.3599522,1.074076,-0.8367391,-0.003706873,0.09002557,-0.1442089,0.0.0.0,10.205.173.28,1,0
2014-11-28 13:02:32.981,6,0.2,56.16951,10.18855,58.41663,-1,-1,24.39122,1414,1417176145,0.3898163,0.2920685,-0.4197235,17.16814,-27.30527,-33.75741,186.0522,183.7739,20,-0.200123,4.407553,-1.80661,0.1779644,0.5512664,0.2524767,0.1793828,3.601207,-1.525121,-0.1860553,0.4846051,0.4365342,0.0.0.0,10.205.173.28,1,0
2014-11-28 13:02:33.014,7,0.2333333,56.16951,10.18855,58.41663,-1,-1,24.39122,1414,1417176145,0.7893372,-0.1185455,-0.9850464,22.45033,-25.62872,-31.79101,182.3757,180.0974,20,-0.9445655,6.409677,-1.158108,0.144963,0.7286358,0.2064656,-1.05948,6.558989,-1.459887,0.1108929,0.2887879,0.1359079,0.0.0.0,10.205.173.28,1,0
2014-11-28 13:02:33.048,8,0.2666667,56.16951,10.18855,58.41663,-1,-1,24.39122,1414,1417176145,0.6415863,-0.03912354,-0.7954865,26.21368,-24.79893,-29.26276,180.0866,177.8083,20,0.2383519,4.177351,-0.829653,0.1383284,0.9124538,0.1675219,-0.1920628,4.690801,-0.8601916,-0.09411253,0.06513121,-0.3533163,0.0.0.0,10.205.173.28,1,0
2014-11-28 13:02:33.081,9,0.3,56.16951,10.18855,58.41663,-1,-1,24.39122,1414,1417176145,0.6483459,-0.07836914,0.05162048,29.75766,-23.91835,-27.08154,172.7427,170.4644,20,0.008097341,-0.9969104,-1.125638,0.09122949,0.9483132,0.161817,1.201885,-1.77095,-1.200021,-0.1450661,0.03870569,0.3160075,0.0.0.0,10.205.173.28,1,0
2014-11-28 13:02:33.114,10,0.3333333,56.16951,10.18855,58.41663,-1,-1,24.39122,1414,1417176145,0.4503479,0.1638184,-0.09977722,32.87973,-22.34341,-25.64391,174.0578,171.7796,20,-3.19605,1.628054,-1.858503,0.08501299,0.9264095,0.1125464,-2.141242,0.01275498,-1.686849,-0.4257732,0.1650433,1.182204,0.0.0.0,10.205.173.28,1,0
2014-11-28 13:02:33.149,11,0.3666667,56.16951,10.18855,58.41663,-1,-1,24.39122,1414,1417176145,0.5904236,0.3648224,-0.8734436,36.4912,-18.27908,-23.49575,190.8884,188.6101,20,-2.225227,2.207483,-2.207561,0.1340405,0.9917397,-0.004159449,-3.390235,2.596452,-2.394147,-0.3427551,0.298346,0.03525168,0.0.0.0,10.205.173.28,1,0
2014-11-28 13:02:33.181,12,0.4,56.16951,10.18855,58.41663,-1,-1,24.39122,1414,1417176145,0.3267059,0.2114716,0.1598511,37.55438,-15.8913,-23.41312,189.0039,186.7256,20,0.3751233,1.11756,-1.363162,0.1282485,1.054258,-0.07381533,0.4384613,1.452422,-1.5854,-0.3191162,0.08259324,-0.1266124,0.0.0.0,10.205.173.28,1,0
2014-11-28 13:02:33.213,13,0.4333334,56.16951,10.18855,58.41663,-1,-1,24.39122,1414,1417176145,0.7919159,0.3680267,0.4701996,38.78633,-12.96161,-22.93392,187.3372,185.0589,20,-3.671862,0.6684873,-0.419981,0.1221919,1.084248,-0.1337909,-1.989816,0.4318285,-1.182354,-0.265991,0.1643984,0.9822738,0.0.0.0,10.205.173.28,1,0
2014-11-28 13:02:33.253,14,0.4666667,56.16951,10.18855,58.41663,-1,-1,24.39122,1414,1417176145,0.2885437,0.52211,-0.2160339,39.88327,-10.23512,-22.28946,188.8272,186.549,20,-4.436362,0.14897,-0.2885844,0.1738765,1.105565,-0.177622,-3.709943,0.6751903,-0.4099385,-0.1080044,0.3008953,0.8306856,0.0.0.0,10.205.173.28,1,0
2014-11-28 13:02:33.282,15,0.5,56.16951,10.18855,58.41663,-1,-1,24.39122,1414,1417176145,0.4290924,0.302124,-1.238724,41.09834,-5.120865,-22.42165,187.305,185.0267,20,-3.49374,-0.3150442,-1.161823,0.3573708,1.113972,-0.2848628,-4.859766,-1.673753,-0.6686096,-0.6121907,0.2141066,-0.692719,0.0.0.0,10.205.173.28,1,0
2014-11-28 13:02:33.315,16,0.5333334,56.16951,10.18855,58.41663,-1,-1,24.39122,1414,1417176145,1.098755,0.4214935,-0.6867981,41.08147,-2.123428,-22.63647,187.718,185.4397,20,-3.425078,0.5682735,-1.623645,0.4535268,1.128234,-0.3678247,-2.990998,0.4076634,-1.576317,-0.04089096,0.2248556,-0.5477006,0.0.0.0,10.205.173.28,1,0
2014-11-28 13:02:33.347,17,0.5666667,56.16951,10.18855,58.41663,-1,-1,24.39122,1414,1417176145,1.444366,0.4239349,-1.585602,40.81145,1.161896,-23.09916,186.5028,184.2245,20,-3.980874,-0.7992067,-1.606598,0.5021124,1.16269,-0.4272834,-3.463158,0.5749764,-1.613603,0.2895406,0.2905866,-0.3511201,0.0.0.0,10.205.173.28,1,0
2014-11-28 13:02:33.380,18,0.6,56.16951,10.18855,58.41663,-1,-1,24.39122,1414,1417176145,1.067734,0.9748535,-1.114334,39.02258,8.54541,-24.68549,178.4785,176.2002,20,-1.040205,-2.477277,0.05643504,0.64851,1.139084,-0.525841,-2.953934,-3.278717,-0.2459839,0.485723,0.4371464,-1.415827,0.0.0.0,10.205.173.28,1,0
2014-11-28 13:02:33.414,19,0.6333334,56.16951,10.18855,58.41663,-1,-1,24.39122,1414,1417176145,0.6139832,1.022705,-0.7005005,37.80751,11.28882,-25.41257,178.6423,176.364,20,-2.300249,-0.4493309,-0.9427997,0.6957923,1.080315,-0.547571,-1.076785,-2.108437,0.07622652,0.3145988,0.4542386,-0.7121553,0.0.0.0,10.205.173.28,1,0
2014-11-28 13:02:33.448,20,0.6666667,56.16951,10.18855,58.41663,-1,-1,24.39122,1414,1417176145,1.208099,0.8710938,-1.538162,36.7612,13.89676,-26.43708,178.4526,176.1743,20,-1.027913,0.2886036,-0.6953793,0.7536955,1.091882,-0.5982176,-2.772394,0.9266404,-0.9484605,0.4620303,0.5556802,-0.5176007,0.0.0.0,10.205.173.28,1,0
2014-11-28 13:02:33.482,21,0.7,56.16951,10.18855,58.41663,-1,-1,24.39122,1414,1417176145,1.595123,0.7612457,-1.058838,35.02296,17.46997,-27.27984,173.6093,171.331,20,0.9215323,1.964863,-0.2546941,0.7890848,1.12836,-0.639697,-0.1697281,0.075432,-0.5335646,0.5837808,0.1732655,-1.073321,0.0.0.0,10.205.173.28,1,0
2014-11-28 13:02:33.514,22,0.7333333,56.16951,10.18855,58.41663,-1,-1,24.39122,1414,1417176145,1.309341,0.3265533,-0.2217102,35.30986,17.85947,-27.49467,173.6131,171.3348,20,2.730931,1.391171,1.922383,0.7541578,1.151597,-0.637823,1.65851,1.665847,0.2515904,0.8612912,0.1657979,-0.7318329,0.0.0.0,10.205.173.28,1,0
2014-11-28 13:02:33.549,23,0.7666667,56.16951,10.18855,58.41663,-1,-1,24.39122,1414,1417176145,0.1310272,1.163971,0.2110291,35.9174,17.55464,-26.96587,174.4747,172.1964,20,2.575413,1.358264,0.780413,0.688759,1.163229,-0.5629365,2.136833,1.919557,1.92532,-0.2072664,0.1136822,0.2526777,0.0.0.0,10.205.173.28,1,0
2014-11-28 13:02:33.581,24,0.8000001,56.16951,10.18855,58.41663,-1,-1,24.39122,1414,1417176145,1.173676,0.3006592,0.3599396,36.92998,16.40309,-26.4371,171.2916,169.0133,20,-0.003444533,-0.366973,-0.9891803,0.5801191,1.156109,-0.5182651,0.9312011,0.05712498,-1.125032,0.07492735,-0.3017092,0.9115487,0.0.0.0,10.205.173.28,1,0
2014-11-28 13:02:33.614,25,0.8333334,56.16951,10.18855,58.41663,-1,-1,24.39122,1414,1417176145,0.9745636,0.3298492,-0.221283,38.29694,13.74435,-26.65191,174.9343,172.656,20,0.006276005,-0.9276706,-0.3359666,0.5783286,1.133059,-0.5433306,-0.4950492,-1.126761,-0.3998358,0.4580393,-0.2766029,0.322503,0.0.0.0,10.205.173.28,1,0
2014-11-28 13:02:33.649,26,0.8666667,56.16951,10.18855,58.41663,-1,-1,24.39122,1414,1417176145,0.6999664,0.4276276,-0.2082977,38.49945,13.10083,-26.7841,179.4135,177.1353,20,0.8802424,-0.1306371,-1.075701,0.5784159,1.122395,-0.5472534,-0.03158373,-0.9209892,-0.3259179,0.2050277,-0.1904945,0.1489291,0.0.0.0,10.205.173.28,1,0
2014-11-28 13:02:33.682,27,0.9,56.16951,10.18855,58.41663,-1,-1,24.39122,1414,1417176145,0.9706726,0.4967346,0.08837891,38.22943,13.30405,-27.14764,180.0512,177.7729,20,0.5218294,0.05926839,-1.234712,0.497763,1.079723,-0.5832798,0.892071,0.3153931,-1.4762,0.2548333,-0.1136153,0.4247003,0.0.0.0,10.205.173.28,1,0
2014-11-28 13:02:33.716,28,0.9333334,56.16951,10.18855,58.41663,-1,-1,24.39122,1414,1417176145,0.666153,0.375061,-0.5342865,37.03125,14.74347,-27.79209,185.7187,183.4404,20,-0.5693939,-0.5548864,-0.03139627,0.4766513,1.065238,-0.6078347,-0.456638,-0.414623,-0.4659037,0.1919285,-0.04339663,0.3404229,0.0.0.0,10.205.173.28,1,0
2014-11-28 13:02:33.749,29,0.9666667,56.16951,10.18855,58.41663,-1,-1,24.39122,1414,1417176145,0.1927948,0.3023376,-0.8589783,36.54184,15.20071,-27.84167,186.6858,184.4075,20,0.2312042,-0.1629956,-0.07925514,0.4880843,1.061098,-0.6133861,-0.3341399,-0.4284883,0.0997104,-0.04761364,-0.2005785,-0.1353174,0.0.0.0,10.205.173.28,1,0
2014-11-28 13:02:33.780,30,1,56.16951,10.18855,58.41663,-1,-1,24.39122,1414,1417176145,0.1283722,0.3294678,-0.2679749,36.40683,15.74261,-27.87473,186.7105,184.4322,20,2.07122,1.482884,-1.625452,0.4259738,1.041779,-0.6137989,2.052019,1.156702,-1.42462,-0.7333547,-0.243717,-0.1292461,0.0.0.0,10.205.173.28,1,0
2014-11-28 13:02:33.814,31,1.033333,56.16951,10.18855,58.41663,-1,-1,24.39122,1414,1417176145,0.6292877,0.397644,-0.3976593,36.37308,16.04744,-27.87473,187.0652,184.787,20,0.9830252,0.5738441,-1.208192,0.3387124,1.033898,-0.6277999,1.149095,1.017196,-1.39506,-0.286285,-0.2462553,0.2997192,0.0.0.0,10.205.173.28,1,0
2014-11-28 13:02:33.848,32,1.066667,56.16951,10.18855,58.41663,-1,-1,24.39122,1414,1417176145,0.670105,0.3612366,-0.4276886,36.4406,16.31839,-27.94082,194.3616,192.0833,20,1.470506,0.572369,-1.199047,0.2800981,1.010384,-0.6409407,1.175742,0.1472647,-1.126544,-0.1214939,-0.1660497,0.009829355,0.0.0.0,10.205.173.28,1,0
2014-11-28 13:02:33.880,33,1.1,56.16951,10.18855,58.41663,-1,-1,24.39122,1414,1417176145,1.080429,0.6269379,-0.04655457,36.59247,16.26758,-27.69296,197.7431,195.4648,20,1.962225,1.914902,-0.7274784,0.2030291,0.9984034,-0.6404681,2.001888,1.838368,-0.8217255,0.3617542,-0.0198426,0.2678264,0.0.0.0,10.205.173.28,1,0
2014-11-28 13:02:33.914,34,1.133333,56.16951,10.18855,58.41663,-1,-1,24.39122,1414,1417176145,1.179916,0.506546,-0.0173645,36.89624,16.36917,-27.19721,201.54,199.2617,20,-0.2950101,0.5911943,-0.05991447,0.1430775,1.019899,-0.6298317,0.6506081,1.38255,-0.2542581,0.4308012,-0.04846614,0.4998742,0.0.0.0,10.205.173.28,1,0
2014-11-28 13:02:33.949,35,1.166667,56.16951,10.18855,58.41663,-1,-1,24.39122,1414,1417176145,1.144531,0.5724945,-0.6997681,37.3519,16.35223,-26.8502,203.3487,201.0704,20,-1.81024,-0.0467723,0.4497525,0.1778068,1.051572,-0.6427253,-1.856031,-0.04180873,0.3321344,0.4962403,-0.04289113,0.1611578,0.0.0.0,10.205.173.28,1,0
2014-11-28 13:02:33.981,36,1.2,56.16951,10.18855,58.41663,-1,-1,24.39122,1414,1417176145,0.9091187,0.4887238,-0.9118347,38.95512,16.50465,-25.14819,203.5779,201.2996,20,0.2510746,0.6113483,0.6226343,0.2543708,1.103456,-0.6501745,-0.6215668,0.1947065,0.6967376,0.3088755,-0.1698852,-0.6676617,0.0.0.0,10.205.173.28,1,0
2014-11-28 13:02:34.013,37,1.233333,56.16951,10.18855,58.41663,-1,-1,24.39122,1414,1417176145,1.122574,0.4983978,-0.9897766,39.74829,16.31837,-24.53678,202.8163,200.538,20,0.7320713,-0.09080128,1.021136,0.263427,1.124905,-0.6308188,0.4041978,0.5275499,0.5246827,0.2032813,-0.06954256,-0.640292,0.0.0.0,10.205.173.28,1,0
2014-11-28 13:02:34.049,38,1.266667,56.16951,10.18855,58.41663,-1,-1,24.39122,1414,1417176145,1.570709,0.7930756,-0.3345337,40.33896,15.92886,-24.32197,201.0271,198.7488,20,1.234038,-0.3405352,2.600869,0.2588594,1.124454,-0.6117654,0.6942146,-0.08412036,1.031183,0.7116226,-0.03500699,-0.5203083,0.0.0.0,10.205.173.28,1,0
2014-11-28 13:02:34.082,39,1.3,56.16951,10.18855,58.41663,-1,-1,24.39122,1414,1417176145,0.8611145,1.199783,0.432312,41.65529,11.79681,-23.72707,200.7921,198.5139,20,-1.236478,2.652031,3.889298,0.2648165,1.118234,-0.4909557,1.078185,0.3766949,3.432364,0.1046933,0.02277852,1.116808,0.0.0.0,10.205.173.28,1,0
2014-11-28 13:02:34.114,40,1.333333,56.16951,10.18855,58.41663,-1,-1,24.39122,1414,1417176145,-0.1352844,1.90329,-0.1126709,42.48222,8.968735,-23.34701,197.602,195.3237,20,-3.499861,-1.018544,1.010009,0.3455092,1.226062,-0.3902774,-2.826731,1.36848,2.987036,-0.5572673,1.282488,0.5169106,0.0.0.0,10.205.173.28,1,0
2014-11-28 13:02:34.149,41,1.366667,56.16951,10.18855,58.41663,-1,-1,24.39122,1414,1417176145,0.5016785,0.8442841,-0.5411987,43.24164,6.648697,-23.13218,188.5569,186.2786,20,-2.718935,-0.7125442,-0.1107752,0.4740245,1.250722,-0.3867733,-3.667706,-1.27946,0.6637745,-0.7794242,0.5215558,-0.02317987,0.0.0.0,10.205.173.28,1,0
2014-11-28 13:02:34.180,42,1.4,56.16951,10.18855,58.41663,-1,-1,24.39122,1414,1417176145,1.018982,0.4700165,-0.7577209,44.10233,3.786758,-22.88432,180.134,177.8557,20,-0.5891762,0.7659246,0.2427037,0.5702369,1.26488,-0.4143271,-2.011019,-0.1794069,-0.1175429,0.01013876,0.348021,-0.3519861,0.0.0.0,10.205.173.28,1,0
2014-11-28 13:02:34.214,43,1.433333,56.16951,10.18855,58.41663,-1,-1,24.39122,1414,1417176145,0.5181427,0.4700317,-0.519455,43.8998,4.193207,-22.42162,179.5772,177.2989,20,0.775022,1.378345,-0.6959903,0.5989389,1.300114,-0.4187016,-0.109496,1.193459,0.1253267,-0.2008929,0.1006123,-0.5198687,0.0.0.0,10.205.173.28,1,0
2014-11-28 13:02:34.248,44,1.466667,56.16951,10.18855,58.41663,-1,-1,24.39122,1414,1417176145,1.120346,0.2065887,-0.3005066,43.93353,4.701233,-21.99199,177.5607,175.2824,20,0.2222941,-0.2651752,-0.3565746,0.5745476,1.332061,-0.4310572,0.8596527,1.098521,-0.9586657,-0.3646142,0.05220024,-0.3046128,0.0.0.0,10.205.173.28,1,0
2014-11-28 13:02:34.281,45,1.5,56.16951,10.18855,58.41663,-1,-1,24.39122,1414,1417176145,0.8265533,0.03140259,-0.693573,44.06854,5.209259,-21.5293,177.9725,175.6943,20,0.9741479,0.2132675,0.6789919,0.5596063,1.326677,-0.4420451,0.007089891,-0.4117497,0.1859292,0.4374808,-0.3290798,-0.1243345,0.0.0.0,10.205.173.28,1,0
2014-11-28 13:02:34.314,46,1.533333,56.16951,10.18855,58.41663,-1,-1,24.39122,1414,1417176145,-0.1172791,0.2575378,-0.2878571,44.82797,4.379456,-20.05864,181.0791,178.8008,20,2.022651,0.6150155,0.3375658,0.5388542,1.32095,-0.4165929,1.443256,0.4312388,0.7880216,-0.3136759,-0.3694603,-0.4314233,0.0.0.0,10.205.173.28,1,0
2014-11-28 13:02:34.348,47,1.566667,56.16951,10.18855,58.41663,-1,-1,24.39122,1414,1417176145,-0.1280212,0.3898163,0.03500366,45.18237,3.65126,-19.57944,181.7419,179.4636,20,1.824071,1.208557,-1.367202,0.4781725,1.316076,-0.389706,2.093252,0.7074516,-0.1998956,-1.012453,-0.1223786,-0.05477498,0.0.0.0,10.205.173.28,1,0
2014-11-28 13:02:34.381,48,1.6,56.16951,10.18855,58.41663,-1,-1,24.39122,1414,1417176145,-0.1121063,0.9694519,0.02433777,45.35114,3.244843,-19.11675,182.6819,180.4036,20,1.856166,2.264196,-3.531993,0.3579621,1.351731,-0.4612608,1.740097,2.407115,-3.045325,-1.09014,0.392096,0.2518414,0.0.0.0,10.205.173.28,1,0
2014-11-28 13:02:34.416,49,1.633333,56.16951,10.18855,58.41663,-1,-1,24.39122,1414,1417176145,0.7813416,0.9838562,0.4675903,45.90805,5.158463,-16.75375,191.4744,189.1961,20,0.227683,3.16746,-3.465019,0.2875948,1.390282,-0.5614271,0.4716811,2.433304,-3.439943,-0.1092311,0.3616635,0.6521898,0.0.0.0,10.205.173.28,1,0
2014-11-28 13:02:34.449,50,1.666667,56.16951,10.18855,58.41663,-1,-1,24.39122,1414,1417176145,0.6366577,1.236603,0.6145325,46.0768,8.105087,-14.07679,200.248,197.9698,20,0.3590434,5.49292,-4.187788,0.2772624,1.416176,-0.5971475,0.1898293,3.17414,-3.454972,-0.03573594,0.4215702,0.5949437,0.0.0.0,10.205.173.28,1,0
2014-11-28 13:02:34.480,51,1.7,56.16951,10.18855,58.41663,-1,-1,24.39122,1414,1417176145,1.456177,1.054901,0.5165405,45.95866,12.35568,-10.42489,208.7425,206.4642,20,0.3557392,4.954634,-4.086812,0.2509614,1.694094,-0.8331958,0.1382666,5.58149,-4.807158,0.3598893,0.350736,0.5848933,0.0.0.0,10.205.173.28,1,0
2014-11-28 13:02:34.514,52,1.733333,56.16951,10.18855,58.41663,-1,-1,24.39122,1414,1417176145,1.533646,0.8890533,0.06622314,45.03047,17.14818,-5.913719,215.8678,213.5895,20,1.406545,5.813529,-2.447419,0.2470067,1.857532,-0.9479353,1.405545,5.637916,-2.645849,0.9559743,0.09943882,0.3947809,0.0.0.0,10.205.173.28,1,0
2014-11-28 13:02:34.548,53,1.766667,56.16951,10.18855,58.41663,-1,-1,24.39122,1414,1417176145,1.004715,0.9792633,0.009185791,42.17844,25.46307,3.587845,240.8744,238.5961,20,1.322473,4.934264,-2.276218,0.2047833,1.9993,-1.033534,1.985893,4.97153,-2.046483,0.5392007,0.1201501,-0.2034664,0.0.0.0,10.205.173.28,1,0
2014-11-28 13:02:34.581,54,1.8,56.16951,10.18855,58.41663,-1,-1,24.39122,1414,1417176145,1.501999,0.8743134,0.3510284,41.28401,28.59598,7.735481,255.406,253.1277,20,-1.816216,2.982313,-1.439458,0.2890522,2.211162,-1.093468,-1.91226,3.180903,-2.131991,0.8434342,0.040821,0.8919672,0.0.0.0,10.205.173.28,1,0
2014-11-28 13:02:34.614,55,1.833333,56.16951,10.18855,58.41663,-1,-1,24.39122,1414,1417176145,1.065475,0.8088226,0.02198792,42.06032,30.08621,10.94123,266.1683,263.89,20,-0.8358731,3.785964,-0.311515,0.4149395,2.422741,-1.087173,-0.9701917,3.425061,-0.491436,1.185966,-0.3498849,-0.6463057,0.0.0.0,10.205.173.28,1,0
2014-11-28 13:02:34.649,56,1.866667,56.16951,10.18855,58.41663,-1,-1,24.39122,1414,1417176145,0.3175964,0.865509,0.2966461,44.94611,30.7128,14.0313,270.492,268.2137,20,-0.8481342,3.076981,-0.1995046,0.4660764,2.586524,-1.068675,-0.9540904,3.558893,-0.2178445,0.352105,-0.01850101,-0.3137364,0.0.0.0,10.205.173.28,1,0
2014-11-28 13:02:34.682,57,1.9,56.16951,10.18855,58.41663,-1,-1,24.39122,1414,1417176145,-0.2725983,0.615387,0.2523346,53.401,32.11838,21.05418,300.5618,298.2835,21,-0.2050546,1.560676,-1.4564,0.5279784,2.758497,-1.044276,-0.695776,2.389916,-0.868131,-0.4612028,-0.05380064,-0.06673211,0.0.0.0,10.205.173.28,1,0
2014-11-28 13:02:34.713,58,1.933333,56.16951,10.18855,58.41663,-1,-1,24.39122,1414,1417176145,-0.1275787,0.792984,0.2670898,57.18121,33.47316,24.65651,308.2083,305.93,21,0.2079236,0.8423624,-1.585191,0.5849656,2.848487,-1.044152,-0.242936,1.567336,-1.446344,-0.417823,-0.2491118,-0.2288635,0.0.0.0,10.205.173.28,1,0
2014-11-28 13:02:34.749,59,1.966667,56.16951,10.18855,58.41663,-1,-1,24.39122,1414,1417176145,0.1269226,0.8343048,0.3224182,59.84763,35.20049,28.0275,315.9857,313.7074,21,1.496008,-0.4003085,-1.841843,0.6880324,2.951332,-1.07209,1.059743,-0.3095436,-1.967243,0.06906385,-0.024015,-0.1732572,0.0.0.0,10.205.173.28,1,0
2014-11-28 13:02:34.782,60,2,56.16951,10.18855,58.41663,-1,-1,24.39122,1414,1417176145,-0.3418884,0.9908295,0.2545624,59.22321,37.62216,30.42354,321.9152,319.6369,21,1.043044,-1.210572,-1.042336,0.8133277,3.051527,-1.146324,1.57109,-0.3495473,-1.132223,-0.1495305,0.02603018,-0.1401969,0.0.0.0,10.205.173.28,1,0
2014-11-28 13:02:34.815,61,2.033334,56.16951,10.18855,58.41663,-1,-1,24.39122,1414,1417176145,0.2294159,0.8620911,0.2453766,57.95752,37.77457,29.41554,324.2352,321.9569,21,0.2022836,-1.775104,-1.017161,0.8914577,3.090441,-1.1826,0.6336102,-1.254928,-1.029343,-0.3048759,0.0991411,-0.05467522,0.0.0.0,10.205.173.28,1,0
2014-11-28 13:02:34.848,62,2.066667,56.16951,10.18855,58.41663,-1,-1,24.39122,1414,1417176145,0.4448853,0.7095947,0.233551,56.86058,37.28346,26.65596,324.1471,321.8688,21,0.04005847,-2.534712,-0.7112366,0.9503865,3.112932,-1.190198,0.1644033,-1.768445,-1.007105,0.2187706,-0.06635143,-0.125947,0.0.0.0,10.205.173.28,1,0
2014-11-28 13:02:34.881,63,2.1,56.16951,10.18855,58.41663,-1,-1,24.39122,1414,1417176145,-0.1315765,0.7796326,0.4398651,54.32916,36.80928,18.1624,317.4912,315.2129,21,-0.02751818,-2.811647,-0.3065575,1.027904,3.082319,-1.190156,-0.1467628,-2.488766,-0.4427843,0.276713,-0.1949828,-0.02966054,0.0.0.0,10.205.173.28,1,0
2014-11-28 13:02:34.915,64,2.133333,56.16951,10.18855,58.41663,-1,-1,24.39122,1414,1417176145,0.1794891,0.7301636,0.6075745,53.28285,37.58827,13.17202,315.1229,312.8446,21,0.1886506,-4.266509,-0.2786905,1.055547,3.018595,-1.189224,0.08013551,-3.257599,-0.3237219,-0.2467212,-0.1515758,0.0463878,0.0.0.0,10.205.173.28,1,0
2014-11-28 13:02:34.948,65,2.166667,56.16951,10.18855,58.41663,-1,-1,24.39122,1414,1417176145,0.3302917,0.7033386,0.6871643,52.35468,38.41806,7.63633,308.5697,306.2914,21,-0.4356173,-1.31249,-0.7435207,1.080832,2.9159,-1.194556,-0.08062007,-3.74658,-0.4862233,0.2794713,-0.2304372,0.3160864,0.0.0.0,10.205.173.28,1,0
2014-11-28 13:02:34.981,66,2.2,56.16951,10.18855,58.41663,-1,-1,24.39122,1414,1417176145,0.04600525,0.9189758,0.6750336,51.61212,39.53575,3.27388,301.7229,299.4446,21,0.1141058,0.3069251,0.08513647,1.144566,2.921099,-1.188375,-0.3045288,-0.4024502,-0.5393838,0.1724429,-0.1150502,0.1709465,0.0.0.0,10.205.173.28,1,0
2014-11-28 13:02:35.014,67,2.233333,56.16951,10.18855,58.41663,-1,-1,24.39122,1414,1417176145,0.3628387,0.9893036,0.5742645,54.29543,41.75418,-2.691452,295.367,293.0887,21,-0.3280373,1.409338,-0.2018258,1.147004,2.930724,-1.188113,-0.0712429,0.5041066,0.10416,-0.0434599,-0.0298085,0.2604557,0.0.0.0,10.205.173.28,1,0
2014-11-28 13:02:35.050,68,2.266667,56.16951,10.18855,58.41663,-1,-1,24.39122,1414,1417176145,0.2999573,1.047928,0.6747589,58.90259,43.32912,-2.311386,295.6229,293.3446,21,-0.8625662,2.209695,-0.1300693,1.163452,2.986003,-1.177955,-0.5479397,1.86334,-0.2541785,0.3035166,0.06547851,0.196074,0.0.0.0,10.205.173.28,1,0
2014-11-28 13:02:35.081,69,2.3,56.16951,10.18855,58.41663,-1,-1,24.39122,1414,1417176145,0.1663666,0.9749908,0.5317841,65.02858,45.51369,0.8778381,297.5125,295.2342,21,-1.046277,0.8113978,0.3950456,1.180909,3.068758,-1.151751,-1.0297,1.737037,0.1575824,0.3305742,0.07481859,0.1032542,0.0.0.0,10.205.173.28,1,0
2014-11-28 13:02:35.114,70,2.333333,56.16951,10.18855,58.41663,-1,-1,24.39122,1414,1417176145,-0.02438354,1.171951,0.7081909,80.25078,50.15378,14.49398,304.4972,302.2189,21,-1.31389,1.31101,-0.185935,1.157107,3.107079,-1.085293,-1.423728,1.404303,-0.03514512,-0.08795662,0.1885884,0.2721954,0.0.0.0,10.205.173.28,1,0
2014-11-28 13:02:35.149,71,2.366667,56.16951,10.18855,58.41663,-1,-1,24.39122,1414,1417176145,0.05596924,1.054092,0.5306396,88.45253,53.13426,26.0611,307.3348,305.0565,21,-0.9149095,1.0569,-0.1977232,1.16149,3.12523,-1.07055,-1.351768,1.317669,-0.1758796,-0.03223146,0.2944866,0.2286138,0.0.0.0,10.205.173.28,1,0
2014-11-28 13:02:35.181,72,2.4,56.16951,10.18855,58.41663,-1,-1,24.39122,1414,1417176145,-0.411911,0.6235809,-0.1078644,94.98354,56.84296,39.23107,308.9229,306.6446,21,0.02605584,1.896343,-0.7788149,1.192459,-3.063002,-1.018427,-0.4781334,1.705165,-0.4727652,-0.3707165,-0.2277028,-0.6309504,0.0.0.0,10.205.173.28,1,0
2014-11-28 13:02:35.214,73,2.433333,56.16951,10.18855,58.41663,-1,-1,24.39122,1414,1417176145,-0.4655609,0.8426361,0.4665527,100.8226,61.34756,52.84721,312.603,310.3247,21,0.05590534,1.677299,-1.422808,1.249333,-2.955276,-1.013109,0.006308936,1.834473,-1.247136,-0.4258614,-0.05981554,-0.184205,0.0.0.0,10.205.173.28,1,0
2014-11-28 13:02:35.247,74,2.466667,56.16951,10.18855,58.41663,-1,-1,24.39122,1414,1417176145,-0.04803467,0.7913208,0.497757,110.2395,69.51007,78.5923,325.1642,322.8859,21,0.03767041,1.615188,-1.401926,1.276342,-2.914101,-1.010379,0.01802795,1.683958,-1.412753,-0.3456805,-0.004397045,-0.05129234,0.0.0.0,10.205.173.28,1,0
2014-11-28 13:02:35.284,75,2.5,56.16951,10.18855,58.41663,-1,-1,24.39122,1414,1417176145,-0.1994171,0.7809906,0.03121948,109.8513,67.39323,86.87105,332.9252,330.6469,21,1.039121,3.237526,0.5812014,1.379259,-2.721941,-1.007869,0.8229709,2.778157,0.02135511,0.2085871,-0.1053556,-0.3595658,0.0.0.0,10.205.173.28,1,0
2014-11-28 13:02:35.314,76,2.533334,56.16951,10.18855,58.41663,-1,-1,24.39122,1414,1417176145,-0.7425232,0.6810455,-0.1200256,104.8898,59.09526,89.34972,340.8524,338.5741,21,1.023865,1.774584,0.5131041,1.361315,-2.636215,-1.047255,0.9594382,2.839169,0.9481833,-0.4268548,-0.2646746,-0.5126022,0.0.0.0,10.205.173.28,1,0
2014-11-28 13:02:35.350,77,2.566667,56.16951,10.18855,58.41663,-1,-1,24.39122,1414,1417176145,0.559845,0.7678223,0.7372742,96.33362,46.74991,86.88757,344.2494,341.9711,21,1.244052,1.268107,-0.1160113,1.386897,-2.571276,-1.081483,1.272093,0.7560776,-0.1663601,0.1136569,-0.1666981,-0.0745852,0.0.0.0,10.205.173.28,1,0
2014-11-28 13:02:35.380,78,2.6,56.16951,10.18855,58.41663,-1,-1,24.39122,1414,1417176145,0.117691,0.6922455,0.332962,64.97797,22.53342,68.74373,351.158,348.8797,21,0.8718899,1.893549,0.6961053,1.420529,-2.490212,-1.111761,0.8117899,2.013622,0.5093121,0.4315071,-0.1885335,0.09690325,0.0.0.0,10.205.173.28,1,0
2014-11-28 13:02:35.413,79,2.633333,56.16951,10.18855,58.41663,-1,-1,24.39122,1414,1417176145,0.4244843,-0.008911133,-0.3313446,47.71379,17.30061,57.0279,354.2867,352.0084,21,0.5108737,-0.5116942,2.000591,1.405716,-2.452859,-1.150189,0.7018028,0.8647546,1.239248,0.4347099,-0.4551997,-0.2394188,0.0.0.0,10.205.173.28,1,0
2014-11-28 13:02:35.449,80,2.666667,56.16951,10.18855,58.41663,-1,-1,24.39122,1414,1417176145,0.2826691,1.090027,0.3405914,33.82483,18.1304,46.93146,355.9568,353.6786,21,0.98554,0.3707834,1.10351,1.299176,-2.575886,-1.201676,0.6838097,-0.9617572,1.937676,0.1699991,-0.4263127,-0.3813996,0.0.0.0,10.205.173.28,1,0
2014-11-28 13:02:35.481,81,2.7,56.16951,10.18855,58.41663,-1,-1,24.39122,1414,1417176145,-0.3492126,1.220322,0.5143585,14.9743,26.27597,33.36488,350.2434,347.9651,21,0.3142168,-0.4366037,1.052548,1.207851,-2.657717,-1.264106,0.6039868,-1.040125,1.923962,0.2105033,-0.2713006,0.1005976,0.0.0.0,10.205.173.28,1,0
2014-11-28 13:02:35.517,82,2.733334,56.16951,10.18855,58.41663,-1,-1,24.39122,1414,1417176145,1.096298,0.5651855,0.1500397,11.34595,29.78145,29.97737,347.03,344.7517,21,-0.3329396,-1.89116,2.820238,1.097268,-2.785506,-1.289109,0.01146334,-1.029645,1.065513,0.4313324,-0.07113758,-0.1429397,0.0.0.0,10.205.173.28,1,0
2014-11-28 13:02:35.548,83,2.766667,56.16951,10.18855,58.41663,-1,-1,24.39122,1414,1417176145,-0.6783295,1.544022,0.6501312,10.31651,32.27084,27.38303,344.4799,342.2016,21,-0.2765128,-2.228163,3.272192,0.9366119,-2.975327,-1.29532,-0.3708389,-1.884518,2.830301,1.141315,-0.3971102,-0.1182147,0.0.0.0,10.205.173.28,1,0
2014-11-28 13:02:35.581,84,2.8,56.16951,10.18855,58.41663,-1,-1,24.39122,1414,1417176145,0.2363892,1.437531,0.4561157,11.51471,34.18446,24.55736,333.6783,331.4,21,-0.1263422,0.1207957,-1.454978,0.7187378,3.029702,-1.286513,-0.09920736,-0.1969776,-1.089176,-1.026678,0.82186,0.5823228,0.0.0.0,10.205.173.28,1,0
2014-11-28 13:02:35.614,85,2.833333,56.16951,10.18855,58.41663,-1,-1,24.39122,1414,1417176145,0.4195251,1.385254,0.6405029,12.021,34.59088,23.86333,329.7539,327.4756,21,-1.142595,0.356617,-0.8875464,0.8709953,-3.104257,-1.282915,-0.4080576,0.1564344,-1.369182,0.6903769,0.4002832,0.1372514,0.0.0.0,10.205.173.28,1,0
2014-11-28 13:02:35.647,86,2.866667,56.16951,10.18855,58.41663,-1,-1,24.39122,1414,1417176145,-0.06686401,1.413239,0.4383087,12.29102,34.65862,23.46674,331.6026,329.3243,21,0.1008856,-0.9585851,-0.2044067,0.9648132,-3.008217,-1.248669,-1.184237,0.07201406,-0.6706282,0.1152197,0.5504898,0.1738367,0.0.0.0,10.205.173.28,1,0
2014-11-28 13:02:35.681,87,2.9,56.16951,10.18855,58.41663,-1,-1,24.39122,1414,1417176145,0.6294708,0.1018066,0.8772278,11.886,33.91348,22.971,333.4676,331.1893,21,3.098378,1.771636,1.649413,0.9946625,-3.004354,-1.244462,0.8385416,-1.568414,-0.2286303,-0.3002897,0.4416007,-0.05310888,0.0.0.0,10.205.173.28,1,0
2014-11-28 13:02:35.714,88,2.933333,56.16951,10.18855,58.41663,-1,-1,24.39122,1414,1417176145,0.1363831,1.582184,-0.04650879,12.02101,33.67641,22.37611,332.4466,330.1683,21,-0.2864587,0.5929744,3.466016,0.8408434,-3.119675,-1.324336,3.249074,3.277403,2.904669,0.2957522,-0.1269628,0.1990786,0.0.0.0,10.205.173.28,1,0
2014-11-28 13:02:35.749,89,2.966667,56.16951,10.18855,58.41663,-1,-1,24.39122,1414,1417176145,0.1394501,1.334244,-0.3129883,12.40916,32.71115,22.0952,333.063,330.7847,21,-0.1029237,-0.05287813,1.520818,0.3995602,2.776071,-1.322335,-1.971861,-1.441522,2.69256,0.149788,0.7058941,-0.5012122,0.0.0.0,10.205.173.28,1,0
2014-11-28 13:02:35.781,90,3,56.16951,10.18855,58.41663,-1,-1,24.39122,1414,1417176145,-0.2434387,1.157333,-0.1443024,13.38797,31.62733,21.10374,329.686,327.4077,21,1.884336,-0.8533732,-0.3350765,0.2531353,2.622025,-1.285017,0.9911252,0.4046797,0.4463727,-0.2738019,0.6266172,-0.5652291,0.0.0.0,10.205.173.28,1,0
2014-11-28 13:02:35.814,91,3.033334,56.16951,10.18855,58.41663,-1,-1,24.39122,1414,1417176145,-0.3335724,0.8094635,0.1249695,15.21059,30.61125,18.45983,325.7545,323.4762,21,1.523387,0.1306422,-0.2834962,0.1571856,2.509593,-1.334383,1.58982,-0.7620795,-0.1383699,-0.3234853,0.163985,-0.1325198,0.0.0.0,10.205.173.28,1,0
2014-11-28 13:02:35.847,92,3.066667,56.16951,10.18855,58.41663,-1,-1,24.39122,1414,1417176145,0.2689514,0.7622528,0.3343201,15.39622,30.62819,17.2205,325.7349,323.4566,21,2.591398,1.898389,0.04173999,0.02091444,2.379731,-1.381806,2.588296,1.057914,-0.6044289,-0.3172706,-0.858995,-0.1001804,0.0.0.0,10.205.173.28,1,0
2014-11-28 13:02:35.884,93,3.1,56.16951,10.18855,58.41663,-1,-1,24.39122,1414,1417176145,-0.1911163,0.848938,-0.02790833,15.31183,31.39023,15.32019,326.9379,324.6596,21,0.4449032,0.6026398,-0.2348831,-0.5960327,1.844634,-1.437227,0.8781274,0.8646516,0.1532349,-0.3440002,-0.312977,0.1127139,0.0.0.0,10.205.173.28,1,0
2014-11-28 13:02:35.917,94,3.133333,56.16951,10.18855,58.41663,-1,-1,24.39122,1414,1417176145,-0.04109192,0.9945526,-0.0848999,13.45547,33.99815,13.13895,332.5946,330.3163,21,-0.2067668,0.1468046,-1.12313,-0.6011143,1.85357,-1.454031,-0.1963702,0.2056396,-0.924972,-0.2356984,0.005100333,-0.07753455,0.0.0.0,10.205.173.28,1,0
2014-11-28 13:02:35.948,95,3.166667,56.16951,10.18855,58.41663,-1,-1,24.39122,1414,1417176145,-0.1998444,0.8104553,0.01115417,11.44724,35.47147,13.12243,334.2324,331.9541,21,-0.2096371,0.5910369,-1.18146,-0.4809475,1.977293,-1.475211,-0.2035819,0.2669202,-1.214463,-0.1112828,-0.05138922,-0.1131909,0.0.0.0,10.205.173.28,1,0
2014-11-28 13:02:35.981,96,3.2,56.16951,10.18855,58.41663,-1,-1,24.39122,1414,1417176145,0.05451965,0.7713318,0.1403961,9.624634,36.52141,13.12243,336.82,334.5417,21,-0.9630965,-0.2948641,-1.943285,0.1834446,2.658482,-1.506371,-0.8222882,0.06355537,-1.689374,-0.1314697,-0.2382666,0.1207524,0.0.0.0,10.205.173.28,1,0
2014-11-28 13:02:36.014,97,3.233334,56.16951,10.18855,58.41663,-1,-1,24.39122,1414,1417176145,0.09909058,1.219009,-0.06617737,7.734512,37.74071,13.55207,338.1424,335.8641,21,-0.3174296,0.368941,-1.659657,1.020811,-2.796705,-1.477881,-0.7952108,-0.07219931,-1.912348,0.126019,0.001170235,-0.04361712,0.0.0.0,10.205.173.28,1,0
2014-11-28 13:02:36.048,98,3.266667,56.16951,10.18855,58.41663,-1,-1,24.39122,1414,1417176145,-0.1814575,1.157928,0.1015167,5.473145,38.62131,13.94865,341.0088,338.7305,21,1.024093,1.017419,-0.4956196,1.417087,-2.385265,-1.451859,0.5690821,0.8273355,-1.249827,0.02796204,0.07263169,-0.03329725,0.0.0.0,10.205.173.28,1,0
2014-11-28 13:02:36.083,99,3.3,56.16951,10.18855,58.41663,-1,-1,24.39122,1414,1417176145,-0.03329468,1.000183,0.2249298,1.81105,39.78981,13.99822,347.0938,344.8155,21,0.7420241,1.369245,-0.5143321,1.729253,-2.041081,-1.455787,0.9107587,1.225259,-0.5710403,0.1960327,-0.2157448,0.2488113,0.0.0.0,10.205.173.28,1,0
2014-11-28 13:02:36.114,100,3.333333,56.16951,10.18855,58.41663,-1,-1,24.39122,1414,1417176145,-0.1427307,1.225952,0.2664948,-0.1296844,39.94223,13.71731,350.0278,347.7495,21,0.6924248,1.634269,-0.731544,1.95485,-1.772496,-1.444143,0.6680533,1.534892,-0.7702702,0.06685433,0.04540912,0.262857,0.0.0.0,10.205.173.28,1,0
2014-11-28 13:02:36.149,101,3.366667,56.16951,10.18855,58.41663,-1,-1,24.39122,1414,1417176145,-0.07963562,1.275543,0.06439209,-1.817291,40.00996,13.05633,353.6627,351.3844,21,1.013151,1.322167,-0.4455844,2.129674,-1.547043,-1.425763,0.7741051,1.585032,-0.5317607,0.001753853,0.236451,0.2699274,0.0.0.0,10.205.173.28,1,0
2014-11-28 13:02:36.181,102,3.4,56.16951,10.18855,58.41663,-1,-1,24.39122,1414,1417176145,0.207962,0.8774872,0.440567,-5.158752,39.40031,10.9412,358.7053,356.427,21,0.5515734,0.5688224,-0.5232233,2.315015,-1.328457,-1.407359,0.8387744,0.771858,-0.4741558,0.2738921,0.06340547,0.3328238,0.0.0.0,10.205.173.28,1,0
2014-11-28 13:02:36.215,103,3.433333,56.16951,10.18855,58.41663,-1,-1,24.39122,1414,1417176145,0.1313019,1.092697,0.4893494,-6.694458,38.87535,10.16456,0.4140356,358.1357,21,-1.019096,-0.1420876,0.05640975,2.313738,-1.312036,-1.39038,-0.4634647,0.1719412,-0.2138612,0.3020511,-0.02777542,0.5758836,0.0.0.0,10.205.173.28,1,0
2014-11-28 13:02:36.249,104,3.466667,56.16951,10.18855,58.41663,-1,-1,24.39122,1414,1417176145,-0.04554749,1.058929,0.2543793,-7.723907,38.65521,9.883644,9.470402,7.192108,20,-1.173223,-0.2880875,0.06542162,2.215154,-1.409235,-1.393278,-1.05694,-0.1354683,0.0665121,0.3055892,0.1084121,0.5177551,0.0.0.0,10.205.173.28,1,0
2014-11-28 13:02:36.281,105,3.5,56.16951,10.18855,58.41663,-1,-1,24.39122,1414,1417176145,-0.3047791,0.5355377,-0.0743103,-8.955872,38.53665,10.82554,14.50283,12.22454,20,-0.5967481,0.2220059,-0.471469,1.960383,-1.677853,-1.39111,-0.7571983,-0.3674406,-0.2629415,-0.02182658,-0.3760203,0.02663392,0.0.0.0,10.205.173.28,1,0
2014-11-28 13:02:36.318,106,3.533334,56.16963,10.18849,58.41663,-1,-1,24.39122,1414,1417176156,-0.6959076,1.291214,-0.2515869,-8.972733,39.29872,11.83353,14.28569,12.0074,20,-0.3833892,0.4257905,-0.2098124,1.86565,-1.766515,-1.374754,-0.5259305,0.3981894,-0.4540505,-0.4988183,0.3118425,-0.2961659,0.0.0.0,10.205.173.28,1,0
2014-11-28 13:02:36.348,107,3.566667,56.16976,10.18845,58.41663,-1,-1,24.39122,1414,1417176156,-0.746521,1.591751,-0.1202393,-9.023376,40.16238,13.00677,13.52395,11.24565,20,-0.9329568,-0.06255792,0.3121784,1.829647,-1.79324,-1.367327,-0.4212324,0.4324096,-0.1997102,-0.4988183,0.3118425,-0.2961659,0.0.0.0,10.205.173.28,1,0
2014-11-28 13:02:36.398,108,3.6,56.16976,10.18845,58.41663,-1,-1,24.39122,1414,1417176156,0.3487244,1.571213,-0.345993,-8.449585,40.97523,14.95665,11.8749,9.596609,20,-1.983311,-2.913784,0.5439003,1.455341,-2.204482,-1.346488,-1.956753,-2.515236,0.3282251,0.3111131,0.6828123,-0.5063398,0.0.0.0,10.205.173.28,1,0
2014-11-28 13:02:36.414,109,3.633333,56.16976,10.18845,58.41663,-1,-1,24.39122,1414,1417176156,0.4093933,1.298218,-0.2984772,-7.386383,40.7551,16.49342,9.228936,6.950643,20,-1.456135,-2.794675,1.231536,1.36838,-2.319328,-1.336726,-2.021153,-2.907165,0.5540023,0.5186635,0.5984825,-0.5038425,0.0.0.0,10.205.173.28,1,0
2014-11-28 13:02:36.449,110,3.666667,56.16976,10.18845,58.41663,-1,-1,24.39122,1414,1417176156,0.3720856,0.9568481,0.05160522,-6.103806,39.94223,18.04672,5.682005,3.403711,20,-0.5028048,-1.425697,1.548286,1.121124,-2.648273,-1.318282,-1.186077,-2.412726,1.387881,0.5179701,0.2053881,-0.3667323,0.0.0.0,10.205.173.28,1,0
2014-11-28 13:02:36.481,111,3.7,56.16976,10.18845,58.41663,-1,-1,24.39122,1414,1417176156,-0.1694489,0.4686584,0.1561432,-2.053543,37.57138,21.18636,357.3769,355.0986,20,-0.3339223,-1.041168,1.608483,0.9093403,-2.905071,-1.316358,-0.3390177,-1.400671,1.602368,0.2898298,-0.2817238,0.004450898,0.0.0.0,10.205.173.28,1,0
2014-11-28 13:02:36.513,112,3.733334,56.16976,10.18845,58.41663,-1,-1,24.39122,1414,1417176156,-0.1956329,0.4170074,0.2070923,0.5622406,36.43675,22.2935,352.1407,349.8624,20,-0.06568953,-0.1811919,1.008154,0.7057509,-3.136847,-1.311413,-0.1788403,-0.6376689,1.353652,-0.1682318,-0.4978898,-0.1003388,0.0.0.0,10.205.173.28,1,0
2014-11-28 13:02:36.549,113,3.766667,56.16976,10.18845,58.41663,-1,-1,24.39122,1414,1417176156,-0.3921661,0.5228271,0.1387787,2.70549,35.47147,22.87186,347.1225,344.8442,20,-0.5634652,-0.3193894,0.6620831,0.5767995,3.013864,-1.305583,-0.2786838,-0.1562902,0.8961154,-0.2904535,-0.5041143,-0.06552197,0.0.0.0,10.205.173.28,1,0
2014-11-28 13:02:36.582,114,3.8,56.16976,10.18845,58.41663,-1,-1,24.39122,1414,1417176156,-0.2778168,0.5589752,0.09207153,4.460587,34.55701,23.59893,343.6549,341.3766,20,-0.3951923,-0.4618694,0.02628114,0.4937469,2.912969,-1.268834,-0.5974537,-0.5325478,0.2268078,-0.3849206,-0.4052858,-0.2383863,0.0.0.0,10.205.173.28,1,0
2014-11-28 13:02:36.614,115,3.833333,56.16976,10.18845,58.41663,-1,-1,24.39122,1414,1417176156,-0.1672211,0.6252136,0.1979065,6.772598,33.21918,24.27644,338.006,335.7277,20,0.02976189,-0.0838704,-0.605046,0.5154412,2.922054,-1.259386,-0.1584952,-0.2143605,-0.4229316,-0.233949,-0.3266888,-0.1011407,0.0.0.0,10.205.173.28,1,0
2014-11-28 13:02:36.649,116,3.866667,56.16976,10.18845,58.41663,-1,-1,24.39122,1414,1417176156,0.2073212,0.8559113,0.2932129,6.975113,33.01596,24.63997,337.0467,334.7684,20,0.4172601,-0.04189978,-0.7833678,0.5347364,2.939227,-1.260155,-0.00810458,-0.07726206,-0.594942,-0.1741676,-0.243718,-0.07807247,0.0.0.0,10.205.173.28,1,0
2014-11-28 13:02:36.682,117,3.9,56.16976,10.18845,58.41663,-1,-1,24.39122,1414,1417176156,0.915329,1.406342,0.5883942,6.620728,33.0329,24.5243,337.3392,335.0609,20,0.8775997,-0.207163,0.0874963,0.637267,3.032595,-1.292595,0.8763809,-0.1759679,-0.2617373,0.6019005,0.06179502,0.04379077,0.0.0.0,10.205.173.28,1,0
2014-11-28 13:02:36.714,118,3.933334,56.16976,10.18845,58.41663,-1,-1,24.39122,1414,1417176156,0.5226593,1.184677,0.6989746,6.468826,33.25305,24.17728,337.4718,335.1935,20,-0.05902044,0.3967055,0.05179768,0.6157684,3.014374,-1.313117,0.3451553,0.4791768,0.06426127,0.4903268,0.2176932,0.4461968,0.0.0.0,10.205.173.28,1,0
2014-11-28 13:02:36.747,119,3.966667,56.16976,10.18845,58.41663,-1,-1,24.39122,1414,1417176156,0.2407684,1.224716,0.7225647,5.608154,33.64255,23.69808,339.3724,337.0941,20,-0.7383271,0.2313304,0.3976305,0.6101898,3.017548,-1.30865,-0.5162274,0.3632766,0.1639276,0.3425085,0.04534874,0.4400264,0.0.0.0,10.205.173.28,1,0
2014-11-28 13:02:36.781,120,4,56.16976,10.18845,58.41663,-1,-1,24.39122,1414,1417176156,0.3063202,1.433853,0.4057922,5.203125,32.79581,23.46674,341.1514,338.8731,20,-0.190815,0.04783969,-0.1450826,0.5844058,3.001067,-1.276981,-0.5933638,0.01743549,-0.0201805,0.2528327,0.3548049,0.5061713,0.0.0.0,10.205.173.28,1,0
2014-11-28 13:02:36.815,121,4.033334,56.16976,10.18845,58.41663,-1,-1,24.39122,1414,1417176156,-0.1795349,1.147308,-0.2110291,5.304382,31.98294,23.73113,341.0008,338.7225,20,0.1410157,-0.122298,0.5057783,0.5853819,3.007374,-1.278197,0.3290852,0.295543,0.2384142,0.183753,0.7083504,-0.1421863,0.0.0.0,10.205.173.28,1,0
2014-11-28 13:02:36.849,122,4.066667,56.16976,10.18845,58.41663,-1,-1,24.39122,1414,1417176156,0.1904602,1.27742,-0.05657959,5.540649,31.10234,23.73113,340.4369,338.1586,20,-0.02006692,-0.7179177,1.182801,0.5231857,2.933177,-1.27443,-0.1944638,-0.8616908,0.8221061,-0.02694974,0.1643084,-0.528037,0.0.0.0,10.205.173.28,1,0
2014-11-28 13:02:36.881,123,4.1,56.16976,10.18845,58.41663,-1,-1,24.39122,1414,1417176156,-0.08976746,1.172714,0.01222229,6.603821,29.12099,23.48327,338.2915,336.0132,20,1.090238,0.6951807,0.6412349,0.3974316,2.802172,-1.270741,0.6901985,0.2566463,0.9218106,-0.1080673,-0.08485194,-0.2408988,0.0.0.0,10.205.173.28,1,0
2014-11-28 13:02:36.913,124,4.133334,56.16976,10.18845,58.41663,-1,-1,24.39122,1414,1417176156,-0.4130402,1.317886,-0.04698181,7.211365,28.03717,22.72314,336.8643,334.586,20,1.199805,-0.961027,0.1848093,0.2926873,2.715125,-1.301219,1.435802,-0.2638707,0.2965474,-0.2856583,0.594573,-0.3675925,0.0.0.0,10.205.173.28,1,0
2014-11-28 13:02:36.948,125,4.166667,56.16976,10.18845,58.41663,-1,-1,24.39122,1414,1417176156,-0.206955,1.219086,-0.06846619,7.835785,27.44446,21.4838,335.7301,333.4518,20,1.071065,-0.5715085,-0.8625188,0.241346,2.637452,-1.332616,0.9457715,-0.7728907,-0.5363278,-0.4460007,0.268908,-0.2916956,0.0.0.0,10.205.173.28,1,0
2014-11-28 13:02:36.981,126,4.2,56.16976,10.18845,58.41663,-1,-1,24.39122,1414,1417176156,-0.06246948,0.9399719,0.2453003,7.76828,27.00417,18.80684,334.0787,331.8004,20,0.6934624,0.1519797,-1.597987,0.3689004,2.746226,-1.391786,0.8614313,-0.096139,-1.56101,-0.2146958,0.05371457,0.0118431,0.0.0.0,10.205.173.28,1,0
2014-11-28 13:02:37.016,127,4.233334,56.16976,10.18845,58.41663,-1,-1,24.39122,1414,1417176156,-0.1876831,0.6575623,0.144928,6.907608,27.49527,17.63361,335.2167,332.9384,20,0.7347693,0.1768001,-1.770003,0.6392912,3.017073,-1.426733,0.6451823,0.09901766,-1.60359,-0.1091392,-0.2274033,0.0807057,0.0.0.0,10.205.173.28,1,0
2014-11-28 13:02:37.049,128,4.266667,56.16976,10.18845,58.41663,-1,-1,24.39122,1414,1417176156,-0.1374054,0.5779419,0.05308533,5.523773,28.30814,16.2786,337.3871,335.1089,20,0.8052264,0.5030256,-1.795097,0.9032781,-3.002427,-1.440939,0.6969059,0.1834079,-1.7599,-0.1660582,-0.3740115,-0.02217654,0.0.0.0,10.205.173.28,1,0
2014-11-28 13:02:37.081,129,4.3,56.16976,10.18845,58.41663,-1,-1,24.39122,1414,1417176156,-0.05899048,0.570343,-0.04415894,0.9166107,29.95081,14.21304,348.0988,345.8205,20,1.053323,1.991855,-1.049462,1.51534,-2.353098,-1.44126,0.9137951,1.612143,-1.369201,0.04308425,-0.4248647,-0.1335525,0.0.0.0,10.205.173.28,1,0
2014-11-28 13:02:37.114,130,4.333333,56.16976,10.18845,58.41663,-1,-1,24.39122,1414,1417176156,0.02308655,0.620697,0.09329224,-1.462906,30.71286,12.94066,354.3504,352.0721,20,0.8488491,1.591584,-0.5702595,1.856946,-1.953765,-1.430112,1.011855,1.931671,-0.8446508,0.1411562,-0.3903736,-0.07249295,0.0.0.0,10.205.173.28,1,0
2014-11-28 13:02:37.148,131,4.366667,56.16976,10.18845,58.41663,-1,-1,24.39122,1414,1417176156,-0.02555847,0.6974182,0.06111145,-3.690552,31.45798,11.51956,1.233829,358.9555,20,0.8086169,1.273076,-0.4445167,2.067796,-1.692402,-1.41853,0.7543272,1.414064,-0.446385,0.1250002,-0.2910116,0.04271192,0.0.0.0,10.205.173.28,1,0
2014-11-28 13:02:37.180,132,4.4,56.16976,10.18845,58.41663,-1,-1,24.39122,1414,1417176156,-0.1156921,1.039917,0.3272705,-5.783188,31.93216,10.3298,9.021183,6.742889,20,0.9476172,1.106745,-0.6395438,2.240061,-1.484083,-1.402516,0.952572,1.087297,-0.6299227,0.06756948,0.007884992,-0.05374735,0.0.0.0,10.205.173.28,1,0
2014-11-28 13:02:37.213,133,4.433333,56.16976,10.18845,58.41663,-1,-1,24.39122,1414,1417176156,-0.05950928,1.102493,0.4067535,-9.124634,31.42412,6.793571,23.40109,21.1228,20,0.6651146,1.295829,-0.3054206,2.381023,-1.310426,-1.377639,0.8192464,1.14553,-0.5347387,0.06979623,0.05851392,0.376688,0.0.0.0,10.205.173.28,1,0
2014-11-28 13:02:37.249,134,4.466667,56.16976,10.18845,58.41663,-1,-1,24.39122,1414,1417176156,-0.01419067,0.7119293,0.2582092,-10.98099,30.03549,5.306374,33.44513,31.16683,20,0.07856565,1.141026,-0.3159042,2.460272,-1.192203,-1.361065,0.4770358,1.176037,-0.3118988,0.08233894,0.003633012,0.4079918,0.0.0.0,10.205.173.28,1,0
2014-11-28 13:02:37.281,135,4.5,56.16976,10.18845,58.41663,-1,-1,24.39122,1414,1417176156,0.0380249,1.302307,0.1814423,-13.02299,27.68158,3.934837,42.64607,40.36777,20,0.4412597,0.6940416,-0.7020506,2.458922,-1.15821,-1.349441,-0.03334252,0.890329,-0.3986827,0.07387039,-0.1188961,0.2058948,0.0.0.0,10.205.173.28,1,0
2014-11-28 13:02:37.314,136,4.533334,56.16976,10.18845,58.41663,-1,-1,24.39122,1414,1417176156,0.1156769,1.338028,0.4377136,-17.0226,22.88907,0.2498856,6.220514,3.942221,21,0.4557492,0.6001106,-0.4832135,2.462586,-1.131129,-1.327116,0.5475874,0.8271365,-0.6801664,0.2563542,0.3318507,0.2841388,0.0.0.0,10.205.173.28,1,0
2014-11-28 13:02:37.348,137,4.566667,56.16976,10.18845,58.41663,-1,-1,24.39122,1414,1417176156,-0.1059113,0.9854126,0.1492004,-18.30518,21.77139,-1.171227,7.697506,5.419213,21,0.08461102,-0.1292989,-0.4146401,2.483273,-1.090849,-1.306206,0.2619548,0.2886665,-0.4409771,0.2450144,0.3445996,0.5168525,0.0.0.0,10.205.173.28,1,0
2014-11-28 13:02:37.380,138,4.6,56.16976,10.18845,58.41663,-1,-1,24.39122,1414,1417176156,-0.4355316,0.6988525,-0.2477264,-19.23337,22.05928,-2.608849,8.236464,5.95817,21,-0.2195651,0.7604971,-1.149699,2.43265,-1.138018,-1.277395,-0.169488,0.3715573,-0.9958279,-0.112683,-0.2173976,0.06640717,0.0.0.0,10.205.173.28,1,0
2014-11-28 13:02:37.416,139,4.633334,56.16976,10.18845,58.41663,-1,-1,24.39122,1414,1417176156,-0.6910248,1.052353,-0.5980988,-19.38525,27.39368,-3.418549,11.14898,8.870689,21,-0.6186206,1.288224,-0.9821461,2.355987,-1.180289,-1.24679,-0.3704409,1.248994,-1.18209,-0.2233775,-0.1735078,-0.4294706,0.0.0.0,10.205.173.28,1,0
2014-11-28 13:02:37.448,140,4.666667,56.16976,10.18845,58.41663,-1,-1,24.39122,1414,1417176156,-0.8584595,1.558395,-0.4560699,-18.7777,30.44191,-2.394035,13.8752,11.5969,21,-1.50717,0.5312521,-0.1753258,2.325849,-1.194956,-1.238913,-0.6564811,1.294831,-0.9720438,-0.3052711,-0.05314215,-0.4641907,0.0.0.0,10.205.173.28,1,0
2014-11-28 13:02:37.481,141,4.7,56.16976,10.18845,58.41663,-1,-1,24.39122,1414,1417176156,-0.2984467,1.510651,-0.4793701,-18.33892,33.04984,-0.1136703,17.00678,14.72849,21,-2.497541,-2.781615,0.3063248,2.018401,-1.500451,-1.254206,-2.527055,-2.090083,0.1460563,-0.1546672,0.6903988,-0.5412738,0.0.0.0,10.205.173.28,1,0
2014-11-28 13:02:37.514,142,4.733334,56.16976,10.18845,58.41663,-1,-1,24.39122,1414,1417176156,0.05029297,1.504288,-0.2188416,-17.25886,34.87878,3.224274,17.48907,15.21078,21,-2.229844,-3.547941,0.8142778,1.754765,-1.85079,-1.260817,-2.409672,-3.553849,0.6969964,0.2205582,0.5901252,-0.4295426,0.0.0.0,10.205.173.28,1,0
2014-11-28 13:02:37.549,143,4.766667,56.16976,10.18845,58.41663,-1,-1,24.39122,1414,1417176156,0.234314,1.042145,0.2087097,-15.67252,35.42068,6.991852,15.33659,13.05829,21,-1.864411,-1.76574,1.422355,1.514364,-2.18306,-1.258341,-1.860456,-2.614271,1.149635,0.402696,0.3515038,-0.2472239,0.0.0.0,10.205.173.28,1,0
2014-11-28 13:02:37.580,144,4.8,56.16976,10.18845,58.41663,-1,-1,24.39122,1414,1417176156,0.03144836,0.530365,-0.006134033,-11.89229,34.50621,14.46091,4.497678,2.219384,21,-0.6154102,-0.7497376,1.228396,1.292687,-2.442638,-1.255806,-1.092662,-1.029169,1.312742,0.2033484,-0.3665099,-0.1860757,0.0.0.0,10.205.173.28,1,0
2014-11-28 13:02:37.613,145,4.833333,56.16976,10.18845,58.41663,-1,-1,24.39122,1414,1417176156,-0.0852356,0.4347839,0.1165619,-9.597153,33.93044,17.30311,359.5499,357.2716,21,-0.06300453,-0.6755878,1.099333,1.162105,-2.589334,-1.268994,-0.06852387,-0.6333431,1.230748,0.1160649,-0.4759664,-0.1887075,0.0.0.0,10.205.173.28,1,0
2014-11-28 13:02:37.648,146,4.866667,56.16976,10.18845,58.41663,-1,-1,24.39122,1414,1417176156,-0.08958435,0.431015,0.1175232,-7.420135,33.67641,19.13733,355.6476,353.3693,21,-0.3120879,-0.4612267,0.6994087,1.057141,-2.707431,-1.280894,-0.2177392,-0.4090613,0.8333567,0.01134448,-0.4932143,-0.1078943,0.0.0.0,10.205.173.28,1,0
2014-11-28 13:02:37.681,147,4.9,56.16976,10.18845,58.41663,-1,-1,24.39122,1414,1417176156,-0.09303284,0.4202728,0.1064606,-4.399323,33.65945,21.23593,351.6047,349.3264,21,-0.3182978,-0.7160124,0.2054706,0.9811757,-2.796891,-1.276936,-0.3942243,-0.6367003,0.3875616,-0.02071442,-0.5495402,-0.2028324,0.0.0.0,10.205.173.28,1,0
2014-11-28 13:02:37.714,148,4.933333,56.16976,10.18845,58.41663,-1,-1,24.39122,1414,1417176156,-0.07008362,0.7198639,0.2314453,-3.336121,33.67641,21.45074,350.0012,347.7229,21,0.170829,-1.025425,-0.6407776,0.9724346,-2.837196,-1.26731,-0.07460599,-0.8108139,-0.3351064,0.04297022,-0.3303226,-0.07308979,0.0.0.0,10.205.173.28,1,0
2014-11-28 13:02:37.748,149,4.966667,56.16976,10.18845,58.41663,-1,-1,24.39122,1414,1417176156,0.0224762,0.8613129,0.274292,-2.306686,33.69334,21.66556,348.1871,345.9088,21,0.2363862,-1.132084,-0.6658552,1.010103,-2.821024,-1.264896,0.1330962,-1.018824,-0.6306769,0.0553442,-0.1695338,-0.03420796,0.0.0.0,10.205.173.28,1,0
2014-11-28 13:02:37.782,150,5,56.16976,10.18845,58.41663,-1,-1,24.39122,1414,1417176156,0.3964386,1.178986,0.4072571,-1.901672,33.49013,21.8969,346.7614,344.4831,21,0.06593161,-0.6175886,-0.2806373,1.07513,-2.79372,-1.264075,0.1180807,-0.9793425,-0.4467822,0.367059,0.04325345,0.07738773,0.0.0.0,10.205.173.28,1,0
2014-11-28 13:02:37.815,151,5.033334,56.16976,10.18845,58.41663,-1,-1,24.39122,1414,1417176156,-0.009521484,1.305145,0.7198029,-1.37851,33.33774,21.88038,344.7369,342.4586,21,-0.6329995,0.2108521,0.370899,1.083966,-2.78577,-1.262791,-0.08160672,0.6574237,0.1834225,0.1521634,0.4054278,0.2850602,0.0.0.0,10.205.173.28,1,0
2014-11-28 13:02:37.847,152,5.066667,56.16976,10.18845,58.41663,-1,-1,24.39122,1414,1417176156,0.2137909,1.167038,0.6658173,-1.226624,33.15146,22.39263,345.1731,342.8948,21,-0.7727237,-0.3137491,0.4588014,1.053129,-2.805431,-1.256247,-0.6707316,0.2174537,0.3809995,0.08865958,0.3507763,0.4843418,0.0.0.0,10.205.173.28,1,0
2014-11-28 13:02:37.883,153,5.1,56.16976,10.18845,58.41663,-1,-1,24.39122,1414,1417176156,0.2388153,1.409027,0.04896545,-1.074753,32.89743,23.23537,344.4472,342.1689,21,-0.0822275,0.5680038,-0.01241246,0.9757147,-2.886713,-1.232166,-0.456948,-0.03504593,0.189994,0.3558357,0.2225915,0.281335,0.0.0.0,10.205.173.28,1,0
2014-11-28 13:02:37.913,154,5.133334,56.16976,10.18845,58.41663,-1,-1,24.39122,1414,1417176156,-0.2388153,1.652283,0.1813965,-0.6528473,32.71115,23.84678,344.2033,341.925,21,0.1743084,-0.1539233,0.6635754,0.9651459,-2.883016,-1.228362,0.1146847,0.5669706,0.3028886,0.03051719,0.6838685,-0.2758047,0.0.0.0,10.205.173.28,1,0
2014-11-28 13:02:37.948,155,5.166667,56.16976,10.18845,58.41663,-1,-1,24.39122,1414,1417176156,-0.2549286,1.07341,0.06732178,0.02220154,32.44022,24.34251,345.0733,342.795,21,0.4251252,0.07623512,0.9381992,0.9066224,-2.940479,-1.237606,-0.002278174,-0.4224201,0.8601449,-0.3166549,0.3162572,-0.5374933,0.0.0.0,10.205.173.28,1,0
2014-11-28 13:02:37.981,156,5.2,56.16976,10.18845,58.41663,-1,-1,24.39122,1414,1417176156,-0.3804932,1.374466,-0.1970215,0.5453491,31.88136,24.35903,343.734,341.4557,21,1.083061,0.5299829,0.524496,0.8209091,-3.022802,-1.25207,0.5352262,0.4198861,0.7921529,-0.3619266,0.09702611,-0.2505259,0.0.0.0,10.205.173.28,1,0
2014-11-28 13:02:38.014,157,5.233334,56.16976,10.18845,58.41663,-1,-1,24.39122,1414,1417176156,-0.1244202,1.248871,0.09425354,1.574799,30.17096,22.92142,342.1897,339.9114,21,1.525096,0.6642102,0.07424547,0.7718271,-3.053968,-1.284639,1.301164,0.262654,0.3954372,-0.3789234,0.4209898,-0.4156457,0.0.0.0,10.205.173.28,1,0
2014-11-28 13:02:38.049,158,5.266667,56.16976,10.18845,58.41663,-1,-1,24.39122,1414,1417176156,-0.06484985,1.261154,0.2178497,1.490417,29.07022,21.54988,342.6508,340.3725,21,1.102085,0.5576489,-0.6571398,0.7749642,-3.033431,-1.330783,1.411772,0.7873226,-0.1325889,-0.09875849,0.2775362,-0.1420733,0.0.0.0,10.205.173.28,1,0
2014-11-28 13:02:38.080,159,5.3,56.16976,10.18845,58.41663,-1,-1,24.39122,1414,1417176156,-0.3390961,0.960556,0.08859253,0.9841309,28.32509,19.86439,343.3141,341.0358,21,0.9398255,-0.5836459,-1.57526,0.8851481,-2.908985,-1.363047,0.996699,0.06511211,-0.9237376,-0.1035774,0.2215756,-0.1375012,0.0.0.0,10.205.173.28,1,0
2014-11-28 13:02:38.115,160,5.333333,56.16976,10.18845,58.41663,-1,-1,24.39122,1414,1417176156,-0.1313782,0.6017456,0.1298828,-1.648514,27.8848,16.52646,346.3961,344.1178,21,0.9511637,0.5502557,-1.789425,1.376732,-2.44252,-1.367754,0.9129022,0.2097148,-1.863304,-0.03594717,-0.2911337,-0.0553821,0.0.0.0,10.205.173.28,1,0
2014-11-28 13:02:38.149,161,5.366667,56.16976,10.18845,58.41663,-1,-1,24.39122,1414,1417176156,-0.151947,0.4589386,0.1528778,-3.589264,28.54526,15.15492,349.0452,346.7669,21,0.9251377,1.199515,-1.584668,1.477627,-2.338759,-1.361742,0.9134339,0.556857,-1.779325,0.01790706,-0.3764821,-0.01428533,0.0.0.0,10.205.173.28,1,0
2014-11-28 13:02:38.182,162,5.4,56.16976,10.18845,58.41663,-1,-1,24.39122,1414,1417176156,-0.05194092,0.3281708,0.1776276,-6.036285,29.47665,13.9817,353.4219,351.1436,21,0.826108,2.2828,-0.9580727,1.834917,-1.915983,-1.321048,0.8530425,2.033431,-1.109326,0.1699278,-0.6456563,0.08981466,0.0.0.0,10.205.173.28,1,0
2014-11-28 13:02:38.214,163,5.433333,56.16976,10.18845,58.41663,-1,-1,24.39122,1414,1417176156,-0.04301453,0.5704956,0.06762695,-8.432678,29.9847,12.4284,24.86722,22.58893,20,0.9049203,2.116359,-0.518521,1.957807,-1.723493,-1.302388,0.8432176,2.3152,-0.6127726,0.2266496,-0.5679083,0.03763483,0.0.0.0,10.205.173.28,1,0
2014-11-28 13:02:38.249,164,5.466667,56.16976,10.18845,58.41663,-1,-1,24.39122,1414,1417176156,-0.04400635,0.7904053,0.04316711,-10.44092,31.05157,10.99077,33.94165,31.66336,20,0.9981187,1.400386,-0.4478425,2.030549,-1.610549,-1.293583,0.9101159,1.741789,-0.4627009,0.2162702,-0.2704003,0.003588873,0.0.0.0,10.205.173.28,1,0
2014-11-28 13:02:38.281,165,5.5,56.16976,10.18845,58.41663,-1,-1,24.39122,1414,1417176156,0.01924133,1.168747,0.1569214,-14.59241,31.59349,7.983315,48.93934,46.66105,20,1.118246,0.8136951,-0.4358559,2.1895,-1.415706,-1.271551,1.159114,0.6575922,-0.488703,0.2987983,0.2211527,0.08702593,0.0.0.0,10.205.173.28,1,0
2014-11-28 13:02:38.314,166,5.533334,56.16976,10.18845,58.41663,-1,-1,24.39122,1414,1417176156,-0.4033508,1.042572,-0.008728027,-16.0775,31.42416,6.132576,54.18871,51.91041,20,0.9214386,1.599256,-0.792512,2.285441,-1.290626,-1.250528,0.9581257,1.401394,-0.5338383,0.04662587,0.1638863,0.2269012,0.0.0.0,10.205.173.28,1,0
2014-11-28 13:02:38.348,167,5.566667,56.16976,10.18845,58.41663,-1,-1,24.39122,1414,1417176156,-0.4195862,1.043533,0.2305298,-19.58772,30.84837,2.331963,67.0977,64.81941,20,0.508599,2.295048,-1.525156,2.328748,-1.193425,-1.212428,0.6950254,2.036106,-1.314398,-0.06379499,0.008720119,0.3256841,0.0.0.0,10.205.173.28,1,0
2014-11-28 13:02:38.381,168,5.6,56.16976,10.18845,58.41663,-1,-1,24.39122,1414,1417176156,-0.4049835,1.31192,0.2666779,-21.37658,30.57742,0.1176834,72.85285,70.57456,20,0.6515967,2.222813,-1.523112,2.31373,-1.135257,-1.160134,0.5204512,2.218761,-1.626339,-0.1053539,0.4039135,0.3756131,0.0.0.0,10.205.173.28,1,0
2014-11-28 13:02:38.413,169,5.633334,56.16976,10.18845,58.41663,-1,-1,24.39122,1414,1417176156,-0.09902954,1.180649,0.3020477,-22.82793,30.84837,-2.030487,78.42844,76.15015,20,0.9509669,1.993658,-0.7088541,2.317372,-1.061285,-1.113546,0.8348588,2.154556,-0.905921,0.215058,0.3578115,0.5286423,0.0.0.0,10.205.173.28,1,0
2014-11-28 13:02:38.450,170,5.666667,56.16976,10.18845,58.41663,-1,-1,24.39122,1414,1417176156,-0.07440186,0.4333344,-0.1800385,-23.77298,31.45802,-3.914276,80.65197,78.37368,20,0.2073015,0.3474768,-0.6580956,2.356453,-0.9549724,-1.074132,0.6791306,1.183195,-0.4589503,0.3622898,-0.08777989,0.5625311,0.0.0.0,10.205.173.28,1,0
2014-11-28 13:02:38.486,171,5.7,56.16976,10.18845,58.41663,-1,-1,24.39122,1414,1417176156,-0.04304504,0.6327057,-0.2542114,-24.41426,34.06595,-5.533676,77.61754,75.33925,20,-0.7112027,-1.337313,-0.8134418,2.345191,-0.9504378,-1.05285,-0.05565662,-0.175729,-0.8036959,0.3284438,-0.4355033,0.1077748,0.0.0.0,10.205.173.28,1,0
2014-11-28 13:02:38.514,172,5.733334,56.16976,10.18845,58.41663,-1,-1,24.39122,1414,1417176156,-0.230957,1.045929,-0.1301117,-24.21175,35.86102,-4.740501,71.66566,69.38737,20,-1.874684,-4.530277,-0.2921248,2.283127,-1.042836,-1.043325,-1.198797,-2.175635,-0.6389952,0.3163578,-0.190926,-0.05135784,0.0.0.0,10.205.173.28,1,0
2014-11-28 13:02:38.553,173,5.766667,56.16976,10.18845,58.41663,-1,-1,24.39122,1414,1417176156,-0.1124268,0.9842529,-0.01950073,-23.87422,36.80936,-2.526215,64.91156,62.63327,20,-2.133807,-5.431187,-0.06056481,2.212654,-1.179243,-1.049441,-1.91241,-4.523676,-0.2820257,0.2998396,-0.02192986,-0.06028042,0.0.0.0,10.205.173.28,1,0
2014-11-28 13:02:38.602,174,5.8,56.16976,10.18845,58.41663,-1,-1,24.39122,1414,1417176156,-0.5117035,1.537979,0.2647705,-22.30476,37.67302,4.463631,56.16238,53.88408,20,-1.218289,-1.0938,2.272965,1.975492,-1.673632,-1.139102,-1.247581,-1.911232,2.183165,0.2131819,0.3090271,0.3253039,0.0.0.0,10.205.173.28,1,0
2014-11-28 13:02:38.619,175,5.833333,56.16976,10.18845,58.41663,-1,-1,24.39122,1414,1417176156,0.02017212,1.649643,0.9580688,-10.44092,34.50624,18.52595,34.07704,31.79875,20,-0.659114,-0.808374,1.582942,1.291431,-2.47007,-1.25121,-0.6397924,-1.911941,1.788232,0.2237622,0.5801145,0.1862159,0.0.0.0,10.205.173.28,1,0
2014-11-28 13:02:38.720,176,5.866667,56.16976,10.18845,58.41663,-1,-1,24.39122,1414,1417176156,0.02017212,1.649643,0.9580688,-10.44092,34.50624,18.52595,34.07704,31.79875,20,-0.659114,-0.808374,1.582942,1.291431,-2.47007,-1.25121,-0.6397924,-1.911941,1.788232,0.2237622,0.5801145,0.1862159,0.0.0.0,10.205.173.28,1,0
2014-11-28 13:02:38.725,177,5.9,56.16981,10.18844,58.41663,-1,-1,24.39122,1414,1417176158,-0.2896271,0.615448,0.2606659,-3.437363,32.96519,21.38467,17.1281,14.84981,20,0.204421,1.002309,0.5781733,0.9074422,-2.838376,-1.266426,-0.007492919,0.8155915,0.8262845,-0.3122021,-0.05524754,0.05098521,0.0.0.0,10.205.173.28,1,0
2014-11-28 13:02:38.796,178,5.933334,56.16981,10.18844,58.41663,-1,-1,24.39122,1414,1417176158,-0.2896271,0.615448,0.2606659,-3.437363,32.96519,21.38467,17.1281,14.84981,20,0.204421,1.002309,0.5781733,0.9074422,-2.838376,-1.266426,-0.007492919,0.8155915,0.8262845,-0.3122021,-0.05524754,0.05098521,0.0.0.0,10.205.173.28,1,0
2014-11-28 13:02:38.799,179,5.966667,56.16981,10.18844,58.41663,-1,-1,24.39122,1414,1417176158,-0.2896271,0.615448,0.2606659,-3.437363,32.96519,21.38467,17.1281,14.84981,20,0.4280435,1.61286,-0.04479597,0.886485,-2.848211,-1.269657,0.1666808,1.008871,0.5883116,-0.2473687,-0.2112554,0.02223316,0.0.0.0,10.205.173.28,1,0
2014-11-28 13:02:38.814,180,6,56.16981,10.18844,58.41663,-1,-1,24.39122,1414,1417176158,-0.2367249,0.2793579,0.1542206,-2.745438,32.50797,21.3351,15.95731,13.67901,20,0.4655709,1.910601,-0.4016851,0.878213,-2.827323,-1.27753,0.3903034,1.619421,-0.03465778,-0.1823369,-0.4827412,-0.1150251,0.0.0.0,10.205.173.28,1,0
2014-11-28 13:02:38.848,181,6.033334,56.16981,10.18844,58.41663,-1,-1,24.39122,1414,1417176158,-0.09268188,-0.1876984,0.03295898,-3.066101,32.18619,20.88894,17.62089,15.3426,20,0.5628261,1.563897,-1.020893,0.8937703,-2.792561,-1.280772,0.4278309,1.917162,-0.3915469,-0.1389247,-0.6788791,-0.1145115,0.0.0.0,10.205.173.28,1,0
2014-11-28 13:02:38.881,182,6.066667,56.16981,10.18844,58.41663,-1,-1,24.39122,1414,1417176158,0.4247131,-0.2227478,-0.107132,-4.213684,31.88138,20.5254,21.02511,18.74682,20,0.02112712,0.9316902,-1.255797,1.110389,-2.503861,-1.274107,0.2327055,1.235247,-1.407812,0.5987742,-1.179057,-0.3420245,0.0.0.0,10.205.173.28,1,0
2014-11-28 13:02:38.919,183,6.1,56.16981,10.18844,58.41663,-1,-1,24.39122,1414,1417176158,0.5258789,0.2128143,-0.462265,-7.301987,32.16928,19.64959,28.72043,26.44214,20,-0.6007702,-0.4732935,-0.4301186,1.180177,-2.41799,-1.247892,-0.5156519,0.04187139,-0.6877689,0.8180514,-0.8491815,-0.6127328,0.0.0.0,10.205.173.28,1,0
2014-11-28 13:02:38.949,184,6.133334,56.16981,10.18844,58.41663,-1,-1,24.39122,1414,1417176158,0.2228088,0.3390808,-0.5484619,-8.247055,32.67731,19.48435,30.9011,28.6228,20,-0.6107782,-1.317642,-0.07967059,1.178877,-2.422834,-1.239631,-0.6385095,-0.4667319,-0.4199806,0.7399714,-0.7328496,-0.7069774,0.0.0.0,10.205.173.28,1,0
2014-11-28 13:02:38.981,185,6.166667,56.16981,10.18844,58.41663,-1,-1,24.39122,1414,1417176158,-0.6150665,0.9980469,-0.1851654,-8.432693,33.03293,19.86441,31.13783,28.85954,20,-0.2426441,-1.072003,0.5124193,1.122078,-2.539608,-1.217786,-0.3468547,-1.25186,0.3833629,-0.1268095,-0.291455,-0.5091479,0.0.0.0,10.205.173.28,1,0
2014-11-28 13:02:39.014,186,6.2,56.16981,10.18844,58.41663,-1,-1,24.39122,1414,1417176158,-1.441895,2.334915,0.325058,-7.926407,33.5071,19.96355,29.70779,27.4295,20,0.6547981,-0.5220784,-1.098764,1.095697,-2.591819,-1.228971,0.763112,-0.7495832,0.05220829,-1.169247,0.9932499,-0.01440403,0.0.0.0,10.205.173.28,1,0
