time,timestamp,recordtime,lat,long,alt,speed,course,verticalAccuracy,horizontalAccuracy,locTimeStamp,accelerationX,accelerationY,accelerationZ,HeadingX,HeadingY,HeadingZ,TrueHeading,MagneticHeading,HeadingAccuracy,RotationX,RotationY,RotationZ,motionYaw,motionRoll,motionPitch,motionRotationRateX,motionRotationRateY,motionRotationRateZ,motionUserAccelerationX,motionUserAccelerationY,motionUserAccelerationZ,en0,pdp_ip0,DeviceOrientation,State
2014-11-28 15:46:01.591,1,0.03333334,56.17328,10.18936,69.96368,0.28,195.1172,16,10,1417185961,0.6740875,0.440033,-0.6557007,45.61542,2.123383,-23.22509,234.283,232.0053,20,0.5431378,0.301268,-0.1666569,0.5387323,0.8454405,-0.4111327,0.4083831,0.4351758,-0.1785354,-0.01182216,0.04038505,-0.04758107,0.0.0.0,10.221.79.104,1,0
2014-11-28 15:46:01.623,2,0.06666667,56.17328,10.18936,69.96368,0.28,195.1172,16,10,1417185961,0.5514069,0.451416,-0.5654755,46.1049,2.038742,-22.91131,234.6224,232.3447,20,-0.5489593,0.2064269,-0.1386266,0.5271963,0.8574719,-0.4182019,-0.4140573,0.1083114,-0.1632778,-0.009900884,0.01209489,0.1396162,0.0.0.0,10.221.79.104,1,0
2014-11-28 15:46:01.658,3,0.1,56.17328,10.18936,69.96368,0.28,195.1172,16,10,1417185961,0.5602722,0.4263763,-0.7563171,46.1049,2.038742,-22.91131,234.6224,232.3447,20,-0.2011811,0.0628253,-0.1936334,0.5309922,0.8609788,-0.4230946,-0.5857844,0.2111514,-0.1284953,-0.1401932,0.04083187,0.02875519,0.0.0.0,10.221.79.104,1,0
2014-11-28 15:46:01.689,4,0.1333333,56.17328,10.18936,69.96368,0.28,195.1172,16,10,1417185961,0.6190186,0.4511414,-0.6079865,46.3412,2.309616,-22.3828,234.014,231.7363,20,-0.03148309,0.2887817,-0.1285931,0.5349053,0.8755465,-0.4357804,-0.06060074,0.3737819,-0.09177335,-0.06607638,0.03061031,0.02397737,0.0.0.0,10.221.79.104,1,0
2014-11-28 15:46:01.723,5,0.1666667,56.17328,10.18936,69.96368,0.28,195.1172,16,10,1417185961,0.6652374,0.4687958,-0.6188965,46.32431,2.665161,-22.30024,234.2751,231.9974,20,-0.03128442,0.1666556,-0.09453823,0.5332572,0.8837904,-0.439135,-0.003937219,0.3037468,-0.1057976,-0.05899905,0.0324086,0.01466251,0.0.0.0,10.221.79.104,1,0
2014-11-28 15:46:01.757,6,0.2,56.17328,10.18936,69.96368,0.28,195.1172,16,10,1417185961,0.6687622,0.4661865,-0.6626129,46.27368,3.156158,-21.98644,234.78,232.5023,20,-0.103263,-0.4838341,-0.09257494,0.5333631,0.8855315,-0.4415962,-0.1114459,-0.1464683,-0.08395096,-0.0431177,0.04167212,-0.08237456,0.0.0.0,10.221.79.104,1,0
2014-11-28 15:46:01.789,7,0.2333333,56.17328,10.18936,69.96368,0.28,195.1172,16,10,1417185961,0.6439972,0.4683838,-0.5727386,46.13864,4.036545,-21.85432,235.4704,233.1926,20,-0.04023211,-0.1486582,0.05883802,0.536801,0.8659207,-0.4459368,-0.09646638,-0.3705475,0.0655162,-0.0008178574,0.02855088,-0.002888135,0.0.0.0,10.221.79.104,1,0
2014-11-28 15:46:01.822,8,0.2666667,56.17328,10.18936,69.96368,0.28,195.1172,16,10,1417185961,0.706604,0.4666595,-0.4653778,46.20616,4.205856,-21.98643,236.2738,233.9961,20,-0.1169461,0.6858252,0.1546756,0.5403683,0.8683566,-0.4456197,-0.08004273,0.3450393,0.08729734,-0.01566508,0.03686314,0.08542929,0.0.0.0,10.221.79.104,1,0
2014-11-28 15:46:01.856,9,0.3,56.17328,10.18936,69.96368,0.28,195.1172,16,10,1417185961,0.6326904,0.4977722,-0.5640106,46.22302,4.019623,-21.80476,236.0091,233.7313,20,-0.2728952,0.7799214,0.1977978,0.550547,0.8961403,-0.4452953,-0.2963226,0.7563965,0.2199429,-0.0720787,0.0670478,-0.0002935335,0.0.0.0,10.221.79.104,1,0
2014-11-28 15:46:01.891,10,0.3333333,56.17328,10.18936,69.96368,0.28,195.1172,16,10,1417185961,0.6529694,0.4293365,-0.4406738,46.79691,3.748734,-20.71477,234.4089,232.1311,20,-0.2703737,2.171141,0.246564,0.5632771,0.9356111,-0.4454714,-0.2794928,1.614659,0.2429499,-0.03902578,0.03382313,0.1323005,0.0.0.0,10.221.79.104,1,0
2014-11-28 15:46:01.922,11,0.3666667,56.17328,10.18936,69.96368,0.28,195.1172,16,10,1417185961,0.7192841,0.4187927,-0.4129333,47.77585,3.20694,-19.26144,232.3876,230.1098,20,0.04681731,3.108304,0.2041641,0.5756703,1.019275,-0.4442172,-0.1848292,2.887071,0.2018541,-0.1160965,-0.0004146018,0.03245579,0.0.0.0,10.221.79.104,1,0
2014-11-28 15:46:01.955,12,0.4,56.17328,10.18936,69.96368,0.28,195.1172,16,10,1417185961,0.7476349,0.375351,-0.3236389,48.92358,2.665146,-17.04842,233.5958,231.3181,20,-0.0215463,4.084812,0.1709494,0.5789268,1.132736,-0.4375462,-0.01663353,3.952344,0.2146686,-0.1095416,-0.03048381,0.0494913,0.0.0.0,10.221.79.104,1,0
2014-11-28 15:46:01.989,13,0.4333334,56.17328,10.18936,69.96368,0.28,195.1172,16,10,1417185961,0.7661133,0.414444,-0.1893768,50.13884,2.563553,-13.9436,232.2529,229.9751,20,-0.3914775,3.07664,-0.5963957,0.5869645,1.302863,-0.4357799,-0.2004201,3.400972,-0.1045358,-0.2774398,-0.06765589,-0.1772243,0.0.0.0,10.221.79.104,1,0
2014-11-28 15:46:02.022,14,0.4666667,56.17328,10.18936,70.76208,0.31,195.1172,16,10,1417185962,0.9668884,0.3838043,-0.2409363,52.02924,2.292664,-6.346657,231.6885,229.4108,20,-0.728978,3.130327,-0.6291153,0.5971563,1.406379,-0.4533842,-0.6918615,2.941494,-0.5991456,0.04715945,-0.05045238,-0.08007723,0.0.0.0,10.221.79.104,1,0
2014-11-28 15:46:02.055,15,0.5,56.17328,10.18936,70.76208,0.31,195.1172,16,10,1417185962,1.032654,0.3858185,-0.5295258,52.26553,2.732864,-2.482124,231.9749,229.6972,20,-0.8099229,2.918023,-0.6829804,0.6140042,1.48001,-0.4680268,-0.7658003,3.135051,-0.6189849,0.01731258,-0.05921944,-0.2168331,0.0.0.0,10.221.79.104,1,0
2014-11-28 15:46:02.091,16,0.5333334,56.17328,10.18936,70.76208,0.31,195.1172,16,10,1417185962,0.6794891,0.5309296,0.210556,52.34991,3.393173,1.167709,236.0631,233.7854,20,-0.6979607,1.139581,-1.088342,0.6577313,1.592019,-0.5001348,-0.8400339,1.17329,-0.8020549,-0.126298,0.005136387,-0.01932413,0.0.0.0,10.221.79.104,1,0
2014-11-28 15:46:02.122,17,0.5666667,56.17328,10.18936,70.76208,0.31,195.1172,16,10,1417185962,0.8285675,0.5437317,0.3729248,51.70853,5.594147,6.551628,239.107,236.8293,20,-0.4992569,1.563531,-1.169614,0.6902606,1.644829,-0.5330829,-0.9757431,1.020005,-1.316439,-0.2164446,0.110492,0.4540894,0.0.0.0,10.221.79.104,1,0
2014-11-28 15:46:02.156,18,0.6,56.17328,10.18936,70.76208,0.31,195.1172,16,10,1417185962,0.2637024,0.6999054,0.04341125,50.89835,6.948608,8.929794,241.8501,239.5724,20,-0.5624729,1.95815,-1.423163,0.7131603,1.683846,-0.5577017,-0.5360872,1.5683,-1.159487,0.1700192,-0.02752857,-0.1274233,0.0.0.0,10.221.79.104,1,0
2014-11-28 15:46:02.189,19,0.6333334,56.17328,10.18936,70.76208,0.31,195.1172,16,10,1417185962,0.7287292,0.4789124,-0.02952576,49.85188,8.404663,11.20889,244.4734,242.1957,20,-0.2447858,1.398751,-2.890471,0.7604519,1.790713,-0.6217933,-0.7985784,1.843325,-2.443804,-0.5932311,0.1435499,-0.2611197,0.0.0.0,10.221.79.104,1,0
2014-11-28 15:46:02.222,20,0.6666667,56.17328,10.18936,70.76208,0.31,195.1172,16,10,1417185962,0.7830963,0.5008545,0.1326752,46.89816,12.55269,14.46236,251.7593,249.4816,20,-0.3800533,0.003932424,-2.430383,0.8060753,1.864835,-0.704972,-0.4172479,0.7763864,-2.782764,0.1409926,-0.171038,0.004270644,0.0.0.0,10.221.79.104,1,0
2014-11-28 15:46:02.256,21,0.7,56.17328,10.18936,70.76208,0.31,195.1172,16,10,1417185962,0.655426,0.8883514,0.3327484,45.31157,14.85527,15.84963,257.4615,255.1838,20,-0.2747165,1.140133,-2.568948,0.8564581,1.907011,-0.7763388,-0.3806098,0.2126399,-2.307491,0.1095605,-0.1998174,-0.1027148,0.0.0.0,10.221.79.104,1,0
2014-11-28 15:46:02.289,22,0.7333333,56.17328,10.18936,70.76208,0.31,195.1172,16,10,1417185962,0.7277985,0.4826813,0.1264801,43.5562,17.5303,16.44417,261.6848,259.4071,20,0.08201817,0.7070597,-2.798071,0.9118783,1.97456,-0.8474057,-0.2127452,1.055982,-2.786244,0.02130139,0.1753458,-0.09479228,0.0.0.0,10.221.79.104,1,0
2014-11-28 15:46:02.322,23,0.7666667,56.17328,10.18936,70.76208,0.31,195.1172,16,10,1417185962,0.06634521,1.493256,0.1350403,41.71645,20.29002,16.92311,266.6145,264.3368,20,-0.8877128,-1.533691,-2.38834,0.9798482,2.036183,-0.9306095,-0.3008005,-1.05845,-3.138295,-0.1587554,0.2817866,-0.310123,0.0.0.0,10.221.79.104,1,0
2014-11-28 15:46:02.356,24,0.8000001,56.17328,10.18936,70.76208,0.31,195.1172,16,10,1417185962,0.3829956,1.10054,0.04252625,37.4968,25.67398,17.41856,274.8743,272.5966,20,-0.09000499,-0.5354134,-4.191824,1.086437,2.077278,-0.9985931,-0.2489759,-1.046911,-3.359099,-0.4071606,0.6525456,-0.1276362,0.0.0.0,10.221.79.104,1,0
2014-11-28 15:46:02.389,25,0.8333334,56.17328,10.18936,70.76208,0.31,195.1172,16,10,1417185962,0.1845245,0.425766,0.1276245,34.45866,28.55222,17.15432,280.8405,278.5627,20,-0.3199807,-2.057197,-4.482615,1.39065,2.303515,-1.194566,0.09260072,-1.527738,-4.736631,-0.08859784,-0.5042905,-0.1181378,0.0.0.0,10.221.79.104,1,0
2014-11-28 15:46:02.422,26,0.8666667,56.17328,10.18936,70.76208,0.31,195.1172,16,10,1417185962,0.1930542,0.423996,-0.01348877,31.25175,31.32884,16.65887,286.5322,284.2545,20,-1.078353,-1.968528,-3.560371,1.745395,2.57471,-1.269061,-1.005111,-1.916624,-3.938387,0.0832884,-0.5334813,-0.1634277,0.0.0.0,10.221.79.104,1,0
2014-11-28 15:46:02.457,27,0.9,56.17328,10.18936,70.76208,0.31,195.1172,16,10,1417185962,0.08509827,0.4381409,0.1196899,27.94357,34.07162,16.16341,292.7737,290.496,20,-1.25337,-1.768272,-3.2457,1.880159,2.682985,-1.27798,-1.115181,-1.96376,-3.550246,0.06526892,-0.5334387,-0.2723124,0.0.0.0,10.221.79.104,1,0
2014-11-28 15:46:02.489,28,0.9333334,56.17328,10.18936,70.76208,0.31,195.1172,16,10,1417185962,0.285553,2.758057,0.1916809,19.45367,38.35512,15.81659,298.3596,296.0819,20,-0.5470445,1.482659,-7.573849,2.741722,-2.853577,-1.238808,-0.9629388,0.4632525,-8.282299,-0.7267725,2.331841,-0.07197435,0.0.0.0,10.221.79.104,1,0
2014-11-28 15:46:02.522,29,0.9666667,56.17328,10.18936,70.76208,0.31,195.1172,16,10,1417185962,-0.4547119,0.5597992,0.109024,14.67706,39.72652,16.22946,304.7931,302.5154,20,-0.8312927,1.06383,-1.026021,3.140922,-2.428434,-1.135288,-0.7358444,1.786299,-2.633102,0.4500405,0.361975,0.1264959,0.0.0.0,10.221.79.104,1,0
2014-11-28 15:46:02.556,30,1,56.17328,10.18936,70.76208,0.31,195.1172,16,10,1417185962,-0.7346649,0.4917297,-0.03775024,10.45744,40.50531,17.31946,316.2341,313.9564,20,-0.109934,-0.1705052,0.4270629,3.132516,-2.413614,-1.111927,-0.217769,0.2128365,0.4818187,-0.2896081,-0.443139,-0.3194292,0.0.0.0,10.221.79.104,1,0
2014-11-28 15:46:02.589,31,1.033333,56.17328,10.18936,70.76208,0.31,195.1172,16,10,1417185962,-0.2577209,0.8530731,0.2138367,3.739777,41.2841,18.83884,325.2097,322.932,20,-1.200517,0.3804318,-0.1641706,3.098081,-2.459122,-1.103424,-1.063188,-0.5753996,-0.1086292,-0.3022482,-0.1936586,-0.3468051,0.0.0.0,10.221.79.104,1,0
2014-11-28 15:46:02.623,32,1.066667,56.17328,10.18936,70.76208,0.31,195.1172,16,10,1417185962,-0.2446289,0.9991608,0.2018433,2.473892,40.79312,19.84627,326.4175,324.1398,20,-1.375128,2.036447,-0.02092845,3.050458,-2.468959,-1.06778,-1.442545,1.948267,-0.1382236,0.05685316,0.07134665,-0.04616526,0.0.0.0,10.221.79.104,1,0
2014-11-28 15:46:02.656,33,1.1,56.17328,10.18936,70.76208,0.31,195.1172,16,10,1417185962,-0.3329163,0.854538,0.1218414,2.085693,40.30212,21.11792,328.9784,326.7007,20,-0.9410008,0.9709587,0.2150255,2.994139,-2.462815,-1.037555,-1.095099,1.253815,0.219188,0.0373499,0.08411796,-0.240775,0.0.0.0,10.221.79.104,1,0
2014-11-28 15:46:02.689,34,1.133333,56.17328,10.18936,70.76208,0.31,195.1172,16,10,1417185962,-0.3211823,1.14093,0.1117401,0.9210815,39.0323,22.98412,335.938,333.6603,20,-0.874486,1.268301,-0.1227203,2.954041,-2.463844,-1.015564,-0.9435757,1.158774,-0.1134614,0.02040397,0.1472313,-0.2839876,0.0.0.0,10.221.79.104,1,0
2014-11-28 15:46:02.722,35,1.166667,56.17328,10.18936,70.76208,0.31,195.1172,16,10,1417185962,-0.3571777,1.360306,0.08827209,-0.1085052,38.10112,23.92548,339.9834,337.7057,20,-0.8153443,0.5690994,-0.4081558,2.928782,-2.45021,-0.9898243,-0.8632793,0.8003531,-0.305416,-0.01083882,0.4361499,-0.2882374,0.0.0.0,10.221.79.104,1,0
2014-11-28 15:46:02.755,36,1.2,56.17328,10.18936,70.76208,0.31,195.1172,16,10,1417185962,-0.3143311,1.303558,-0.01147461,-1.087448,37.49161,24.61913,342.5082,340.2305,20,-0.6346267,0.295687,-0.4941559,2.917906,-2.443509,-0.9606691,-0.7679186,0.3673904,-0.4987626,0.04207584,0.4838306,-0.3993886,0.0.0.0,10.221.79.104,1,0
2014-11-28 15:46:02.789,37,1.233333,56.17328,10.18936,70.76208,0.31,195.1172,16,10,1417185962,-0.3118439,1.513794,-0.06724548,-1.931381,36.91597,25.18063,345.1427,342.865,20,0.3766402,1.090047,-0.254759,2.921352,-2.425918,-0.9332693,-0.1082275,0.5478814,-0.4124419,0.06800827,0.6307713,-0.5591763,0.0.0.0,10.221.79.104,1,0
2014-11-28 15:46:02.823,38,1.266667,56.17328,10.18936,70.76208,0.31,195.1172,16,10,1417185962,-0.3582611,1.563431,-0.2734375,-3.534851,36.45885,25.79169,349.1441,346.8664,20,1.424156,0.7321256,0.1167493,2.941992,-2.377649,-0.9344856,0.5875219,1.151324,-0.1123461,0.09079287,0.743497,-0.5359299,0.0.0.0,10.221.79.104,1,0
2014-11-28 15:46:02.856,39,1.3,56.17328,10.18936,70.76208,0.31,195.1172,16,10,1417185962,-0.3959808,1.482819,-0.4277496,-3.889297,36.64508,25.41185,351.5421,349.2644,20,1.980302,0.4661347,0.201755,2.967925,-2.336871,-0.9510318,1.387331,0.7368936,0.1268742,0.03158415,0.7458144,-0.7567097,0.0.0.0,10.221.79.104,1,0
2014-11-28 15:46:02.890,40,1.333333,56.17328,10.18936,70.76208,0.31,195.1172,16,10,1417185962,-0.5527344,1.321991,-0.4157562,-4.345001,37.44083,24.23927,352.2319,349.9542,20,4.745563,0.3881744,0.0211463,3.116717,-2.194526,-1.032955,3.755267,0.4748622,0.2719072,-0.06235675,0.4401337,-0.7571392,0.0.0.0,10.221.79.104,1,0
2014-11-28 15:46:02.922,41,1.366667,56.17328,10.18936,70.76208,0.31,195.1172,16,10,1417185962,-0.5584259,1.362915,1.100296,-5.222702,40.21745,18.72324,349.3076,347.0299,20,2.301143,3.226681,-0.1276645,-2.909466,-1.949692,-1.104404,4.42979,1.322092,-0.09084417,-0.1846587,0.5037152,0.2821416,0.0.0.0,10.221.79.104,1,0
2014-11-28 15:46:02.955,42,1.4,56.17328,10.18936,70.76208,0.31,195.1172,16,10,1417185962,-0.581543,1.312531,-0.5527649,-5.712189,41.52113,15.43673,348.9368,346.6591,20,2.141706,1.404437,0.7439026,-2.722032,-1.694833,-1.123353,1.568525,2.377348,0.2004302,0.06193729,0.3362675,-0.2648627,0.0.0.0,10.221.79.104,1,0
2014-11-28 15:46:02.991,43,1.433333,56.17328,10.18936,70.76208,0.31,195.1172,16,10,1417185962,-0.4822083,1.077316,0.129715,-5.897827,43.19727,11.62174,349.8309,347.5532,20,3.20262,-0.9151314,1.458196,-2.573551,-1.512064,-1.146827,2.664612,1.592753,0.9254195,-0.2230558,0.408834,-0.2097088,0.0.0.0,10.221.79.104,1,0
2014-11-28 15:46:03.022,44,1.466667,56.17328,10.18936,69.2829,0.32,195.1172,16,10,1417185963,-0.05201721,0.7884521,-0.087677,-5.72905,44.17924,7.790253,348.793,346.5153,20,5.778653,-1.916078,1.144567,-2.299647,-1.273852,-1.170181,4.202189,-1.428583,1.483443,-0.1092905,0.1564953,0.2438246,0.0.0.0,10.221.79.104,1,0
2014-11-28 15:46:03.055,45,1.5,56.17328,10.18936,69.2829,0.32,195.1172,16,10,1417185963,-0.1375275,0.6817169,-0.1025085,-4.648819,44.89034,-0.4342575,340.8362,338.5585,20,6.105811,-3.194681,0.3243775,-1.874148,-0.940321,-1.12467,5.714148,-1.908379,0.8702914,0.4050864,-0.0818281,0.05452204,0.0.0.0,10.221.79.104,1,0
2014-11-28 15:46:03.089,46,1.533333,56.17328,10.18936,69.2829,0.32,195.1172,16,10,1417185963,-0.1446533,0.4278259,0.3028412,-4.125595,44.56865,-5.834694,336.4263,334.1486,20,5.733205,-4.059655,-0.05236094,-1.561376,-0.7574385,-1.007653,6.208109,-3.713801,0.185676,0.1483416,-0.2433471,0.5305163,0.0.0.0,10.221.79.104,1,0
2014-11-28 15:46:03.122,47,1.566667,56.17328,10.18936,69.2829,0.32,195.1172,16,10,1417185963,-0.2123871,0.01039124,0.149292,-4.311249,42.96022,-11.33421,331.1847,328.907,20,1.702061,-1.524482,-0.3695983,-1.284418,-0.7243298,-0.8075165,2.841358,-2.198722,-0.4213695,0.1056737,-0.573662,0.8552502,0.0.0.0,10.221.79.104,1,0
2014-11-28 15:46:03.156,48,1.6,56.17328,10.18936,69.2829,0.32,195.1172,16,10,1417185963,-0.02593994,0.1757355,-0.1065521,-5.172058,41.28407,-16.2392,325.9052,323.6274,20,-0.05816371,-0.6221001,0.392375,-1.269177,-0.7311821,-0.7892061,1.66523,-1.51967,-0.3594774,0.1233385,-0.6721661,0.7827748,0.0.0.0,10.221.79.104,1,0
2014-11-28 15:46:03.191,49,1.633333,56.17328,10.18936,69.2829,0.32,195.1172,16,10,1417185963,-0.3717957,0.1334839,-0.7369843,-6.859894,38.40585,-22.28371,319.2522,316.9745,20,-0.959318,-0.3170051,1.498743,-1.247089,-0.7421142,-0.8275015,-1.127228,-0.1106522,1.475064,0.1478181,-0.6429049,-0.08593288,0.0.0.0,10.221.79.104,1,0
2014-11-28 15:46:03.222,50,1.666667,56.17328,10.18936,69.2829,0.32,195.1172,16,10,1417185963,-0.4103241,0.7453308,-1.58699,-6.994919,37.96567,-22.94433,315.7278,313.4501,20,-0.5017502,-0.004288754,1.172439,-1.223185,-0.7330654,-0.879151,-0.687852,-0.1402884,1.363074,0.19136,-0.3052776,-0.4997085,0.0.0.0,10.221.79.104,1,0
2014-11-28 15:46:03.256,51,1.7,56.17328,10.18936,69.2829,0.32,195.1172,16,10,1417185963,-0.4472961,0.4361725,-1.414444,-6.60672,37.98259,-22.53146,313.2539,310.9762,20,0.3768227,-0.9480901,0.5346994,-1.205674,-0.7218357,-0.9013678,-0.1881105,-0.3086971,0.8306305,-0.0002951514,-0.03884559,-1.121218,0.0.0.0,10.221.79.104,1,0
2014-11-28 15:46:03.289,52,1.733333,56.17328,10.18936,69.2829,0.32,195.1172,16,10,1417185963,-1.630035,0.6944733,0.2579193,-5.357712,38.11803,-21.93688,309.9061,307.6284,20,1.162596,2.196562,-0.7550057,-1.151125,-0.7255637,-0.8825102,1.389148,-0.476472,-0.1263358,-0.5858841,-0.5452698,0.0816654,0.0.0.0,10.221.79.104,1,0
2014-11-28 15:46:03.322,53,1.766667,56.17328,10.18936,69.2829,0.32,195.1172,16,10,1417185963,-0.2843475,0.5368805,1.035034,-4.817612,37.98259,-22.59751,308.3473,306.0695,20,1.075216,-0.2329717,-0.7724981,-1.159232,-0.6359321,-0.8372667,1.287521,2.659504,-1.243071,-2.125775,1.469022,-0.7768844,0.0.0.0,10.221.79.104,1,0
2014-11-28 15:46:03.356,54,1.8,56.17328,10.18936,69.2829,0.32,195.1172,16,10,1417185963,-0.7415314,-0.6009216,0.1351013,-4.530685,37.72862,-23.30766,312.541,310.2633,20,-1.610685,2.117299,0.3978297,-1.174171,-0.637073,-0.8321778,-1.454635,1.333764,0.3546185,0.3054579,-1.236027,2.108506,0.0.0.0,10.221.79.104,1,0
2014-11-28 15:46:03.393,55,1.833333,56.17328,10.18936,69.2829,0.32,195.1172,16,10,1417185963,-0.6415558,1.599091,-0.227417,-2.960953,38.62595,-22.76267,315.0051,312.7274,20,-4.417809,4.386851,-0.0827849,-1.28015,-0.578981,-0.9503898,-5.089601,5.227834,0.3627985,0.1896278,0.1570762,1.341992,0.0.0.0,10.221.79.104,1,0
2014-11-28 15:46:03.422,56,1.866667,56.17328,10.18936,69.2829,0.32,195.1172,16,10,1417185963,-0.3895721,1.75705,-0.1430359,-1.695068,39.92961,-20.5992,316.8277,314.55,20,-4.738621,3.892441,-0.04517201,-1.372488,-0.5527059,-1.035632,-4.454637,4.391662,-0.07266458,-0.3738188,0.738906,0.2066329,0.0.0.0,10.221.79.104,1,0
2014-11-28 15:46:03.456,57,1.9,56.17328,10.18936,69.2829,0.32,195.1172,16,10,1417185963,-0.1339722,1.436218,-0.3524933,-0.3954315,41.47031,-16.42088,321.4906,319.2129,20,-5.00113,1.709271,-0.1884365,-1.563092,-0.6136494,-1.167902,-5.076233,2.417646,-0.07683755,-0.1091782,0.6952128,-0.1054012,0.0.0.0,10.221.79.104,1,0
2014-11-28 15:46:03.490,58,1.933333,56.17328,10.18936,69.2829,0.32,195.1172,16,10,1417185963,-0.2584686,1.41626,0.2653198,1.393707,44.51785,-5.586975,329.6871,327.4094,20,-6.132845,1.750194,-1.375444,-2.113937,-1.051484,-1.31464,-5.741,2.634772,-0.6497491,-0.1116585,0.3428402,0.2954638,0.0.0.0,10.221.79.104,1,0
2014-11-28 15:46:03.522,59,1.966667,56.17328,10.18936,69.2829,0.32,195.1172,16,10,1417185963,-0.1320496,1.960373,0.3901062,1.039246,44.73796,1.200722,334.5092,332.2315,20,-4.648498,-1.976218,-2.375494,-2.898473,-1.755244,-1.306779,-5.98743,0.488032,-1.770209,0.03929467,0.6464822,0.2426357,0.0.0.0,10.221.79.104,1,0
2014-11-28 15:46:03.557,60,2,56.17328,10.18936,69.2829,0.32,195.1172,16,10,1417185963,-0.162384,2.732422,0.4390564,0.1278076,44.12845,7.83979,339.0711,336.7934,20,-4.193163,-2.557077,-2.278439,3.085455,-2.06554,-1.225706,-4.685326,-1.971407,-2.365374,0.1237382,1.47552,0.3269457,0.0.0.0,10.221.79.104,1,0
2014-11-28 15:46:03.590,61,2.033334,56.17328,10.18936,69.2829,0.32,195.1172,16,10,1417185963,-1.13855,1.365326,-1.162491,-1.57692,42.8248,13.37234,344.6655,342.3878,20,-2.48392,-2.334018,-1.433682,2.911811,-2.273499,-1.046706,-3.069286,-0.21964,-2.427102,-0.6928487,1.811527,-0.9022889,0.0.0.0,10.221.79.104,1,0
2014-11-28 15:46:03.623,62,2.066667,56.17328,10.18936,69.2829,0.32,195.1172,16,10,1417185963,0.1405487,0.5407257,-0.8266602,-4.530655,38.54129,23.56215,354.2138,351.9361,20,-2.903918,0.9457338,-1.129375,2.863817,-2.371434,-0.9516203,-2.754257,-2.397088,-1.262783,-0.6622059,-0.1606704,-1.534628,0.0.0.0,10.221.79.104,1,0
2014-11-28 15:46:03.656,63,2.1,56.17328,10.18936,69.2829,0.32,195.1172,16,10,1417185963,0.5279846,0.3055115,-0.232193,-6.049713,36.54346,26.56789,356.7053,354.4276,20,-0.4541987,0.1501197,-0.782115,2.808926,-2.404313,-0.8608493,-2.236699,2.12813,-1.028474,0.7994527,-0.3295329,-1.017557,0.0.0.0,10.221.79.104,1,0
2014-11-28 15:46:03.692,64,2.133333,56.17328,10.18936,69.2829,0.32,195.1172,16,10,1417185963,0.7368774,0.5415344,-0.7939911,-7.096191,34.8504,28.58272,3.376233,1.098511,20,0.547695,1.182414,-0.06077467,2.812464,-2.382616,-0.8259792,0.1070788,-0.8868197,-0.5038064,1.136029,-0.1697669,-1.037316,0.0.0.0,10.221.79.104,1,0
2014-11-28 15:46:03.722,65,2.166667,56.17328,10.18936,69.2829,0.32,195.1172,16,10,1417185963,-0.08863831,0.004196167,-0.2260284,-9.172241,32.86951,30.54802,8.911301,6.633579,20,1.027653,1.230971,0.2015347,2.830933,-2.343793,-0.8332877,0.3808408,2.316005,0.07865696,0.6880317,-0.4217868,-0.8765402,0.0.0.0,10.221.79.104,1,0
2014-11-28 15:46:03.756,66,2.2,56.17328,10.18936,69.2829,0.32,195.1172,16,10,1417185963,0.09571838,0.05628967,-0.04925537,-10.45501,33.17424,29.82135,12.45312,10.1754,20,1.978878,0.3527953,0.4329352,2.857716,-2.276074,-0.8575462,1.654374,0.4539161,0.3185284,0.4868025,-0.7447494,-0.6086532,0.0.0.0,10.221.79.104,1,0
2014-11-28 15:46:03.789,67,2.233333,56.17328,10.18936,69.2829,0.32,195.1172,16,10,1417185963,0.2931976,0.3366394,0.1120758,-11.04576,34.10544,28.48364,12.10605,9.828324,20,2.415061,0.966169,1.239655,2.919954,-2.216722,-0.9071912,1.989562,0.4307738,0.5885348,0.8043253,-0.6464041,-0.4174011,0.0.0.0,10.221.79.104,1,0
2014-11-28 15:46:03.822,68,2.266667,56.17328,10.18936,69.2829,0.32,195.1172,16,10,1417185963,-0.8124084,1.992203,-0.2089233,-11.77155,35.64615,26.84864,10.56471,8.286992,20,2.567022,1.293564,2.516747,2.985621,-2.135252,-0.9797537,2.379125,1.351523,1.725533,0.2816572,0.1818774,-0.1892205,0.0.0.0,10.221.79.104,1,0
2014-11-28 15:46:03.856,69,2.3,56.17328,10.18936,69.2829,0.32,195.1172,16,10,1417185963,-2.117126,2.64798,-0.1742554,-11.72091,37.76248,24.68517,8.5256,6.247879,20,3.609214,1.936171,0.1167394,3.049878,-2.036067,-1.08311,2.571422,1.384264,2.336606,-1.032643,1.54845,-0.1345381,0.0.0.0,10.221.79.104,1,0
2014-11-28 15:46:03.893,70,2.333333,56.17328,10.18936,69.2829,0.32,195.1172,16,10,1417185963,-2.466751,2.118164,-0.07913208,-11.55212,41.79198,18.01308,4.22342,1.945698,20,4.959552,0.2347225,-0.2233878,-2.802742,-1.536616,-1.121329,4.493521,1.804042,-0.9931019,-1.831591,1.190355,-0.07430903,0.0.0.0,10.221.79.104,1,0
2014-11-28 15:46:03.923,71,2.366667,56.17328,10.18936,69.2829,0.32,195.1172,16,10,1417185963,-0.8165741,2.543259,-0.5002747,-11.72091,43.75595,13.48794,3.515752,1.23803,20,5.29434,1.084049,2.14066,-2.423311,-1.189797,-1.112261,5.459209,0.4988345,2.171587,-0.5282677,1.891247,-0.1304204,0.0.0.0,10.221.79.104,1,0
2014-11-28 15:46:03.955,72,2.4,56.17328,10.18936,69.2829,0.32,195.1172,16,10,1417185963,-0.4902802,1.95813,-0.8520966,-11.23143,45.09349,8.318718,2.319684,0.04196177,20,4.919247,-0.3871408,1.059419,-2.285131,-1.055496,-1.108868,5.257515,1.08886,2.150779,-0.4287724,1.648064,-0.2806476,0.0.0.0,10.221.79.104,1,0
2014-11-28 15:46:03.989,73,2.433333,56.17328,10.18936,69.2829,0.32,195.1172,16,10,1417185963,-0.2354889,0.96492,-0.07693481,-11.23143,46.00775,-3.572128,357.1636,354.8859,20,5.0827,-5.09537,0.1519323,-1.809385,-0.727016,-0.9616262,5.287346,-4.424358,0.3224486,0.04266889,0.5672059,0.234721,0.0.0.0,10.221.79.104,1,0
2014-11-28 15:46:04.022,74,2.466667,56.17328,10.18936,69.2829,0.32,195.1172,16,10,1417185963,-0.04135132,-0.03741455,0.582962,-10.92763,45.33052,-9.055138,351.7073,349.4296,20,2.455221,-4.416494,0.3517373,-1.645408,-0.7587443,-0.8596165,3.476118,-4.938035,0.2514183,0.3462549,-0.3561946,0.7934178,0.0.0.0,10.221.79.104,1,0
2014-11-28 15:46:04.057,75,2.5,56.17328,10.18936,68.77039,0.36,195.1172,16,10,1417185964,0.08216858,-0.6314087,0.5883484,-11.0289,44.14537,-13.11784,343.903,341.6252,20,-0.5505345,-1.938406,0.04248674,-1.581353,-0.8257425,-0.8324662,0.1938556,-2.434267,0.2616088,0.5768978,-1.371002,1.044687,0.0.0.0,10.221.79.104,1,0
2014-11-28 15:46:04.089,76,2.533334,56.17328,10.18936,68.77039,0.36,195.1172,16,10,1417185964,0.5103455,-1.082001,0.9951324,-13.18935,42.11368,-16.85024,333.6762,331.3985,20,-3.055179,-0.2161547,-0.1483357,-1.62894,-0.9095832,-0.8560356,-2.321671,-0.7895721,-0.2490935,0.8972154,-2.005784,1.404639,0.0.0.0,10.221.79.104,1,0
2014-11-28 15:46:04.122,77,2.566667,56.17328,10.18936,68.77039,0.36,195.1172,16,10,1417185964,-0.1117401,0.2117615,0.06387329,-13.66194,42.38457,-15.76025,333.4527,331.175,20,-3.873844,0.2284585,0.9315708,-1.768218,-1.017767,-0.9219121,-3.932623,0.2229998,0.6024725,0.9371321,-1.076177,0.854634,0.0.0.0,10.221.79.104,1,0
2014-11-28 15:46:04.155,78,2.6,56.17328,10.18936,68.77039,0.36,195.1172,16,10,1417185964,-1.034546,0.7834015,-1.510513,-14.13454,43.23109,-13.34904,333.2924,331.0147,20,-2.532375,1.650697,0.7621648,-1.924711,-1.128166,-1.008014,-3.379326,1.179454,1.095215,-0.1947416,-0.3682655,-0.5134184,0.0.0.0,10.221.79.104,1,0
2014-11-28 15:46:04.189,79,2.633333,56.17328,10.18936,68.77039,0.36,195.1172,16,10,1417185964,0.1219482,0.5799561,-0.2341309,-13.52692,45.43211,-8.625732,333.7537,331.476,20,2.415243,-0.8512957,-0.6391113,-1.971587,-1.120794,-1.033515,1.816481,-0.1344168,-0.3951178,-0.4730793,0.8866699,-1.689446,0.0.0.0,10.221.79.104,1,0
2014-11-28 15:46:04.222,80,2.666667,56.17328,10.18936,68.77039,0.36,195.1172,16,10,1417185964,0.4031982,0.1184387,2.288788,-13.17247,45.99081,-7.486198,337.0985,334.8208,20,1.982334,-0.5882052,-0.6451934,-1.896454,-1.075271,-0.9981965,2.579041,-1.0507,-0.6847947,0.5985966,-0.2605391,0.02350088,0.0.0.0,10.221.79.104,1,0
2014-11-28 15:46:04.255,81,2.7,56.17328,10.18936,68.77039,0.36,195.1172,16,10,1417185964,-1.871307,1.590622,-0.6636047,-13.17247,46.16014,-7.684372,337.8148,335.5371,20,1.103768,4.163889,-1.162984,-1.894848,-1.036289,-0.9723701,-1.107378,3.817705,-1.042181,-1.767826,1.169947,0.3568467,0.0.0.0,10.221.79.104,1,0
2014-11-28 15:46:04.291,82,2.733334,56.17328,10.18936,68.77039,0.36,195.1172,16,10,1417185964,-0.01756287,-0.2005768,1.39267,-13.35814,45.77075,-9.715729,344.5148,342.2371,20,-4.888911,1.679801,0.5926492,-1.844888,-0.8881722,-0.9483078,-1.285305,1.08545,0.8904822,1.153976,-1.770407,1.328978,0.0.0.0,10.221.79.104,1,0
2014-11-28 15:46:04.322,83,2.766667,56.17328,10.18936,68.77039,0.36,195.1172,16,10,1417185964,-0.3851929,0.7730865,1.49411,-12.96993,46.09242,-9.038612,345.7767,343.499,20,-4.619305,4.89148,-0.3420772,-2.022584,-0.9815613,-1.049126,-5.954602,3.383051,0.8821084,0.5398434,-0.593123,2.16257,0.0.0.0,10.221.79.104,1,0
2014-11-28 15:46:04.356,84,2.8,56.17328,10.18936,68.77039,0.36,195.1172,16,10,1417185964,-0.866745,2.326706,0.282486,-12.48045,46.34639,-7.337563,346.5354,344.2577,20,-3.796862,2.450793,-1.247001,-2.225931,-1.060608,-1.117303,-4.656134,4.896333,-0.3319618,-0.8880391,0.4821203,0.465381,0.0.0.0,10.221.79.104,1,0
2014-11-28 15:46:04.389,85,2.833333,56.17328,10.18936,68.77039,0.36,195.1172,16,10,1417185964,-0.7214813,1.72937,-0.01316833,-12.4467,46.5834,-4.100616,350.899,348.6212,20,-5.573714,1.519588,-2.031446,-2.662624,-1.390672,-1.1408,-4.997119,1.911726,-1.245815,-0.1439392,0.764647,0.6179411,0.0.0.0,10.221.79.104,1,0
2014-11-28 15:46:04.422,86,2.866667,56.17328,10.18936,68.77039,0.36,195.1172,16,10,1417185964,-0.7626648,3.255234,-0.4202576,-13.57755,45.75381,5.891014,1.199505,358.9218,20,-3.190843,-2.056682,-2.496451,-3.06127,-1.703612,-1.083577,-5.121924,0.2030846,-2.433299,-0.3890259,1.0567,-0.3159191,0.0.0.0,10.221.79.104,1,0
2014-11-28 15:46:04.456,87,2.9,56.17328,10.18936,68.77039,0.36,195.1172,16,10,1417185964,-0.3741302,2.291611,-0.4527893,-14.97846,43.97609,10.9281,6.815808,4.538086,20,-2.790098,-2.040499,-1.44848,3.039846,-1.914794,-0.9812179,-2.760712,-2.572776,-2.200815,-0.2392286,2.424059,-0.607774,0.0.0.0,10.221.79.104,1,0
2014-11-28 15:46:04.489,88,2.933333,56.17328,10.18936,68.77039,0.36,195.1172,16,10,1417185964,-0.6337891,0.7794037,-0.9521484,-16.36251,42.04599,15.88263,9.59945,7.321728,20,-2.788507,-0.506704,-1.132015,2.939696,-2.062905,-0.8987963,-2.972647,-1.033729,-1.269955,-0.1738854,0.2923883,-1.026844,0.0.0.0,10.221.79.104,1,0
2014-11-28 15:46:04.522,89,2.966667,56.17328,10.18936,68.77039,0.36,195.1172,16,10,1417185964,0.2743225,0.03672791,-0.5348358,-17.35835,39.4556,20.09398,12.94016,10.66244,20,-1.384889,-1.965814,-1.026184,2.849732,-2.153563,-0.8220799,-2.422229,-1.478797,-0.9683266,0.1350565,-0.03778474,-1.271754,0.0.0.0,10.221.79.104,1,0
2014-11-28 15:46:04.555,90,3,56.17328,10.18936,68.77039,0.36,195.1172,16,10,1417185964,0.2046051,0.7417145,-0.838089,-18.08411,35.13826,26.68349,20.35028,18.07256,20,-0.05115347,-0.1332872,-0.5530429,2.818955,-2.234997,-0.7683508,-0.9306098,-1.390689,-0.971628,0.8405156,-0.6582224,-0.9780845,0.0.0.0,10.221.79.104,1,0
2014-11-28 15:46:04.589,91,3.033334,56.17328,10.18936,68.77039,0.36,195.1172,16,10,1417185964,0.1825256,0.5847168,-0.6208496,-18.37104,33.83459,28.64879,21.88299,19.60527,20,0.7800577,1.03757,0.3734109,2.827633,-2.234078,-0.7491913,-0.04385431,1.022833,-0.1527539,1.219581,0.1265093,-0.9222952,0.0.0.0,10.221.79.104,1,0
2014-11-28 15:46:04.622,92,3.066667,56.17328,10.18936,68.77039,0.36,195.1172,16,10,1417185964,-0.4946747,-0.2434387,0.0887146,-18.5567,33.27588,29.0947,24.06631,21.78858,20,2.130502,0.9924629,0.2341893,2.883861,-2.132077,-0.7977018,1.910293,1.286561,0.3400693,0.09819633,-0.8895506,-0.3987215,0.0.0.0,10.221.79.104,1,0
2014-11-28 15:46:04.658,93,3.1,56.17328,10.18936,68.77039,0.36,195.1172,16,10,1417185964,-0.1751404,-0.07875061,0.01638794,-18.67486,33.66528,28.68182,25.11445,22.83673,20,2.909846,-0.004384362,0.1681919,2.908329,-2.102677,-0.8114145,2.093675,0.9973157,0.2443041,0.09868927,-0.9687005,-0.2604481,0.0.0.0,10.221.79.104,1,0
2014-11-28 15:46:04.690,94,3.133333,56.17328,10.18936,68.77039,0.36,195.1172,16,10,1417185964,-0.3098907,1.128891,-0.09339905,-19.40062,36.18796,23.8429,21.90841,19.63069,20,2.171951,2.36506,1.242502,3.093303,-1.916726,-0.8917369,2.371016,2.407272,0.8496826,0.2809646,0.3507272,-0.3063569,0.0.0.0,10.221.79.104,1,0
2014-11-28 15:46:04.722,95,3.166667,56.17328,10.18936,68.77039,0.36,195.1172,16,10,1417185964,-1.645966,2.257385,-0.1289062,-19.04617,38.10112,20.49034,19.21558,16.93786,20,2.850419,3.174325,1.390722,-3.110424,-1.783559,-0.9566773,1.973021,2.361265,1.856702,-0.5012383,1.394343,0.03176335,0.0.0.0,10.221.79.104,1,0
2014-11-28 15:46:04.756,96,3.2,56.17328,10.18936,68.77039,0.36,195.1172,16,10,1417185964,-2.247818,2.108765,0.01300049,-18.77612,39.72649,16.92308,17.25903,14.98131,20,4.181445,1.549914,0.3183583,-3.003464,-1.631172,-0.9917111,3.679822,2.773033,0.8204684,-1.099704,1.420422,-0.1619274,0.0.0.0,10.221.79.104,1,0
2014-11-28 15:46:04.789,97,3.233334,56.17328,10.18936,68.77039,0.36,195.1172,16,10,1417185964,-1.037552,2.383881,-0.4506531,-17.69589,42.29996,8.467361,14.86409,12.58637,20,4.202065,1.178549,2.106657,-2.670769,-1.312949,-0.9903723,4.367538,0.799518,1.153272,-1.181374,1.276609,0.01952087,0.0.0.0,10.221.79.104,1,0
2014-11-28 15:46:04.822,98,3.266667,56.17328,10.18936,68.77039,0.36,195.1172,16,10,1417185964,-0.3969727,2.122498,-0.5061188,-16.83509,43.23114,4.090874,11.31892,9.041195,20,4.191092,-0.3471817,1.416768,-2.399418,-1.049866,-1.002497,4.002052,0.7860928,1.917805,-0.1435562,1.336427,-0.3261853,0.0.0.0,10.221.79.104,1,0
2014-11-28 15:46:04.856,99,3.3,56.17328,10.18936,68.77039,0.36,195.1172,16,10,1417185964,-0.5260162,1.562759,-0.2120819,-15.9574,43.40047,-0.6654816,8.826422,6.5487,20,4.718404,-3.447049,0.5223879,-2.156682,-0.8883572,-0.94936,4.732242,-2.59417,0.5806804,0.006163154,1.109717,0.03410456,0.0.0.0,10.221.79.104,1,0
2014-11-28 15:46:04.890,100,3.333333,56.17328,10.18936,68.77039,0.36,195.1172,16,10,1417185964,-0.3278809,0.2176056,0.3335419,-14.55648,42.9095,-9.600136,358.5184,356.2407,20,3.788506,-4.854129,0.4596645,-1.959352,-0.858691,-0.8664538,4.298628,-4.684062,0.4320384,0.01176577,0.03927784,0.5388241,0.0.0.0,10.221.79.104,1,0
2014-11-28 15:46:04.924,101,3.366667,56.17328,10.18936,68.77039,0.36,195.1172,16,10,1417185964,0.08355713,-0.6694946,0.5700378,-14.48897,42.13068,-12.63892,350.2746,347.9969,20,0.898591,-2.936099,0.4544612,-1.830537,-0.9070251,-0.815221,1.870883,-3.740956,0.5408122,0.4845571,-0.9260125,0.9995309,0.0.0.0,10.221.79.104,1,0
2014-11-28 15:46:04.957,102,3.4,56.17328,10.18936,68.77039,0.36,195.1172,16,10,1417185964,0.2874146,-0.8943176,0.5680084,-14.91093,41.30107,-14.2739,346.3048,344.0271,20,-1.223348,-2.278733,-0.001116397,-1.811527,-0.9781189,-0.8193729,-0.7103186,-2.302459,0.1865648,0.8023313,-1.56043,0.9695601,0.0.0.0,10.221.79.104,1,0
2014-11-28 15:46:04.989,103,3.433333,56.17328,10.18936,68.77039,0.36,195.1172,16,10,1417185964,-0.303299,0.02226257,-0.03733826,-16.32873,41.23334,-13.01875,338.8852,336.6075,20,-3.208424,-0.7006183,0.9641914,-1.921806,-1.136609,-0.862767,-3.007396,-1.183096,0.3814954,0.9691144,-1.431901,0.8493092,0.0.0.0,10.221.79.104,1,0
2014-11-28 15:46:05.022,104,3.466667,56.17329,10.18937,69.24945,0.4,195.1172,16,10,1417185964,-0.7995911,0.2607117,-0.9915619,-16.46376,41.87669,-10.31028,338.5663,336.2886,20,-2.002223,0.3699802,0.672163,-2.05857,-1.266867,-0.9252416,-3.12222,-0.2788222,0.9887839,0.01590059,-0.7520437,-0.2092888,0.0.0.0,10.221.79.104,1,0
2014-11-28 15:46:05.057,105,3.5,56.17329,10.18937,69.24945,0.4,195.1172,16,10,1417185964,-0.9792938,1.959473,-2.513657,-16.44688,42.84175,-7.552261,337.3221,335.0444,20,-0.6864213,0.5792189,0.4688668,-2.138718,-1.326452,-0.9561231,-2.039046,0.3748326,0.6822769,-0.3343592,-0.001700093,-1.450468,0.0.0.0,10.221.79.104,1,0
2014-11-28 15:46:05.089,106,3.533334,56.17329,10.18937,69.24945,0.4,195.1172,16,10,1417185964,-0.7659149,0.2156067,2.967209,-16.31185,43.55284,-5.999847,338.2789,336.0012,20,1.391083,1.0011,-0.9243598,-2.057733,-1.243851,-0.9449776,3.155083,-0.6904109,-0.5293882,0.1635423,0.214449,-0.8328778,0.0.0.0,10.221.79.104,1,0
2014-11-28 15:46:05.122,107,3.566667,56.17329,10.18937,69.24945,0.4,195.1172,16,10,1417185964,-2.947754,2.359467,-0.4256897,-16.44688,43.51898,-6.09893,341.9229,339.6451,20,2.309474,2.489332,0.004796886,-1.982699,-1.15924,-0.8955303,0.1286924,2.960989,-1.306735,-2.959898,0.7037733,0.8724098,0.0.0.0,10.221.79.104,1,0
2014-11-28 15:46:05.156,108,3.6,56.17329,10.18937,69.24945,0.4,195.1172,16,10,1417185964,0.1061554,0.02432251,2.081284,-16.54815,43.38353,-7.585289,344.3668,342.0891,20,-4.398333,0.4893599,1.797678,-1.933956,-1.042273,-0.8622329,0.02784565,1.891709,0.8113692,1.743562,-0.1725818,1.990924,0.0.0.0,10.221.79.104,1,0
2014-11-28 15:46:05.188,109,3.633333,56.17329,10.18937,69.24945,0.4,195.1172,16,10,1417185964,-1.783325,1.381577,0.1665039,-16.21058,43.1465,-8.245888,347.1896,344.9119,20,-5.170771,4.859773,0.5644567,-2.062566,-1.113097,-0.9603949,-5.413388,2.248708,1.50255,0.01607501,-0.4493313,2.28974,0.0.0.0,10.221.79.104,1,0
2014-11-28 15:46:05.222,110,3.666667,56.17329,10.18937,69.24945,0.4,195.1172,16,10,1417185964,-1.375626,1.996399,-0.1844482,-15.94052,43.31581,-7.089828,347.5584,345.2807,20,-4.804648,0.4709784,-0.7492175,-2.336316,-1.211803,-1.044097,-5.123878,3.272831,-0.7502934,-1.312688,0.5171056,0.3431124,0.0.0.0,10.221.79.104,1,0
2014-11-28 15:46:05.256,111,3.7,56.17329,10.18937,69.24945,0.4,195.1172,16,10,1417185964,-0.6308746,2.01178,0.5920868,-15.02908,43.68829,0.1107483,355.8526,353.5749,20,-5.562574,2.223798,-0.9437675,-2.660285,-1.462707,-1.054641,-5.513967,0.1771305,-0.5637017,-0.2737143,1.067762,0.7792099,0.0.0.0,10.221.79.104,1,0
2014-11-28 15:46:05.289,112,3.733334,56.17329,10.18937,69.24945,0.4,195.1172,16,10,1417185964,-0.9674225,2.352859,-0.5617218,-15.38353,43.29887,5.213913,0.0879941,357.8103,20,-2.694387,-1.855325,-2.340166,-3.009115,-1.711755,-1.019403,-4.952684,2.254072,-1.505445,-0.3806741,1.29211,0.1054309,0.0.0.0,10.221.79.104,1,0
2014-11-28 15:46:05.322,113,3.766667,56.17329,10.18937,69.24945,0.4,195.1172,16,10,1417185964,-0.6154022,1.959686,-0.04223633,-16.24432,42.02908,10.31708,7.125836,4.848114,20,-3.216681,-1.45976,-1.3378,3.122219,-1.874993,-0.9315492,-2.490589,-3.042876,-2.152783,-0.3982219,1.550314,-0.7404171,0.0.0.0,10.221.79.104,1,0
2014-11-28 15:46:05.355,114,3.8,56.17329,10.18937,69.24945,0.4,195.1172,16,10,1417185964,-0.5248718,1.275024,-0.9646454,-17.30766,40.25136,15.02387,10.38965,8.111931,20,-3.007187,-0.5637428,-0.7317086,3.004871,-2.025965,-0.8501981,-3.518761,-0.8101114,-1.185958,-0.1777617,0.5778735,-1.135852,0.0.0.0,10.221.79.104,1,0
2014-11-28 15:46:05.388,115,3.833333,56.17329,10.18937,69.24945,0.4,195.1172,16,10,1417185964,0.213974,0.2853699,-0.5825043,-19.06303,35.47687,22.88506,20.29503,18.01731,20,-0.4725641,-1.19572,-0.8489505,2.862871,-2.185024,-0.7517291,-1.134246,-1.374739,-0.8014459,0.6345072,-0.2586322,-0.9707868,0.0.0.0,10.221.79.104,1,0
2014-11-28 15:46:05.421,116,3.866667,56.17329,10.18937,69.24945,0.4,195.1172,16,10,1417185964,0.1786804,0.8494415,-0.516098,-19.18118,33.42825,25.90732,23.55963,21.2819,20,-0.4725303,1.002994,-0.3401674,2.868749,-2.209751,-0.7248927,-0.1803543,-0.2527598,-0.5990953,0.487153,0.1993868,-1.555043,0.0.0.0,10.221.79.104,1,0
2014-11-28 15:46:05.455,117,3.9,56.17329,10.18937,69.24945,0.4,195.1172,16,10,1417185964,0.1268005,0.4230499,-0.4841461,-19.55251,32.10765,27.69095,24.97269,22.69497,20,0.1044462,1.560699,-0.156767,2.867567,-2.203399,-0.7189636,-0.5093572,1.007888,-0.3300569,0.5503876,0.3441109,-1.420583,0.0.0.0,10.221.79.104,1,0
2014-11-28 15:46:05.489,118,3.933334,56.17329,10.18937,69.24945,0.4,195.1172,16,10,1417185964,-0.1880341,-0.2027588,-0.3401031,-20.61585,30.97328,28.59927,29.7012,27.42348,20,2.125068,0.7460662,-0.2317717,2.915637,-2.102987,-0.729549,1.787563,1.089424,-0.2121826,0.40333,-0.8591452,-0.3957874,0.0.0.0,10.221.79.104,1,0
2014-11-28 15:46:05.522,119,3.966667,56.17329,10.18937,69.24945,0.4,195.1172,16,10,1417185964,0.2737274,0.3182678,-0.01739502,-21.64545,31.63358,27.06338,30.29818,28.02046,20,2.908546,0.8386686,0.1001471,3.008178,-2.020081,-0.7588773,2.657664,0.6041021,-0.08812568,0.6375917,-0.7311218,-0.5510329,0.0.0.0,10.221.79.104,1,0
2014-11-28 15:46:05.556,120,4,56.17329,10.18937,69.24945,0.4,195.1172,16,10,1417185964,-0.1854553,0.9815369,0.1076965,-22.82694,32.88646,24.75127,29.12966,26.85194,20,2.612518,2.493823,1.156064,3.120875,-1.900206,-0.8031355,2.734412,2.143358,0.6861987,0.4716602,0.2619998,-0.1169488,0.0.0.0,10.221.79.104,1,0
2014-11-28 15:46:05.589,121,4.033334,56.17329,10.18937,69.24945,0.4,195.1172,16,10,1417185964,-1.602066,2.154755,0.1953125,-23.63711,36.44191,18.64069,25.42142,23.14369,20,2.336951,2.528233,1.922028,-3.079188,-1.774502,-0.87147,1.797911,1.506276,2.249143,-0.2058651,1.31497,0.1482217,0.0.0.0,10.221.79.104,1,0
2014-11-28 15:46:05.622,122,4.066667,56.17329,10.18937,69.24945,0.4,195.1172,16,10,1417185964,-2.185059,1.753815,-0.1502075,-23.62022,38.49052,14.33026,21.55421,19.27649,20,3.167296,2.892244,0.5597869,-2.953783,-1.588816,-0.9250345,3.060268,2.840976,0.7288499,-1.323584,0.9368778,-0.324137,0.0.0.0,10.221.79.104,1,0
2014-11-28 15:46:05.655,123,4.1,56.17329,10.18937,69.24945,0.4,195.1172,16,10,1417185964,-2.394287,1.916016,-0.2120361,-23.28265,40.38678,10.03633,20.44312,18.1654,20,3.788528,0.2257018,2.072265,-2.776575,-1.369471,-0.9373894,3.500391,1.30293,1.071765,-1.91736,1.020858,-0.06149557,0.0.0.0,10.221.79.104,1,0
2014-11-28 15:46:05.689,124,4.133334,56.17329,10.18937,69.24945,0.4,195.1172,16,10,1417185964,-0.5579681,2.699265,-0.6676025,-21.91549,41.72432,5.395592,19.19348,16.91576,20,4.399244,0.4805914,2.746811,-2.514891,-1.136201,-0.979396,4.481623,0.9282858,3.461318,-0.1149238,2.004297,-0.3946069,0.0.0.0,10.221.79.104,1,0
2014-11-28 15:46:05.722,125,4.166667,56.17329,10.18937,69.24945,0.4,195.1172,16,10,1417185964,-0.4125824,1.293091,0.1420441,-18.57355,42.84175,-4.513466,10.85549,8.577765,20,5.971338,-3.519023,1.08143,-2.228099,-0.9095315,-0.9607361,5.140078,-1.895033,1.375554,-0.02585687,1.332105,-0.2070313,0.0.0.0,10.221.79.104,1,0
2014-11-28 15:46:05.756,126,4.2,56.17329,10.18937,69.24945,0.4,195.1172,16,10,1417185964,-0.515625,0.4318695,0.5945282,-17.08824,42.29996,-9.269806,3.361851,1.084129,20,5.568573,-5.819997,0.6452805,-1.955965,-0.836522,-0.8561072,6.219256,-5.85529,0.6720269,0.07391936,0.5377938,0.5811823,0.0.0.0,10.221.79.104,1,0
2014-11-28 15:46:05.789,127,4.233334,56.17329,10.18937,69.24945,0.4,195.1172,16,10,1417185964,-0.0458374,-1.008789,1.031754,-16.22742,41.1656,-13.34902,356.6674,354.3897,20,0.3037942,-2.753387,0.03285222,-1.730673,-0.8969907,-0.7489095,2.795439,-4.318879,0.299234,0.4152105,-1.151132,1.397578,0.0.0.0,10.221.79.104,1,0
2014-11-28 15:46:05.822,128,4.266667,56.17329,10.18937,69.24945,0.4,195.1172,16,10,1417185964,0.3849182,-0.964035,1.094101,-17.37518,38.59213,-17.31264,341.9776,339.6999,20,-3.775668,-1.207325,0.07377835,-1.709142,-0.9764335,-0.7408336,-1.159277,-1.995601,0.00545612,0.9927986,-2.250205,1.736745,0.0.0.0,10.221.79.104,1,0
2014-11-28 15:46:05.856,129,4.3,56.17329,10.18937,69.24945,0.4,195.1172,16,10,1417185964,0.1875916,-0.08894348,0.4624176,-18.50605,38.30429,-16.4043,338.6593,336.3816,20,-4.537908,-0.9018316,0.3232449,-1.781152,-1.055144,-0.7741497,-3.812492,-1.202432,0.08388805,1.006961,-1.663143,1.446677,0.0.0.0,10.221.79.104,1,0
2014-11-28 15:46:05.888,130,4.333333,56.17329,10.18937,69.24945,0.4,195.1172,16,10,1417185964,-0.8625793,0.6754913,-1.871399,-19.41748,38.6429,-13.89401,336.2268,333.9491,20,0.2206389,2.706377,0.2252997,-2.012416,-1.246686,-0.8567109,-3.259903,0.7813876,0.2226719,-0.08127515,-0.400178,-0.9237834,0.0.0.0,10.221.79.104,1,0
2014-11-28 15:46:05.922,131,4.366667,56.17329,10.18937,69.24945,0.4,195.1172,16,10,1417185964,-0.8286591,0.9996948,-0.9374695,-19.78882,39.65877,-10.49191,339.0623,336.7846,20,2.311447,-0.3507165,-0.04901681,-2.023321,-1.180247,-0.8644412,1.705136,2.51329,0.3132697,-0.717955,0.9563999,-2.232563,0.0.0.0,10.221.79.104,1,0
2014-11-28 15:46:05.956,132,4.4,56.17329,10.18937,69.24945,0.4,195.1172,16,10,1417185964,0.3637695,0.3487244,0.007644653,-19.70441,40.11589,-10.01297,343.7018,341.4241,20,-0.4130363,1.721867,-0.09012564,-1.921447,-1.095607,-0.8337327,2.20336,-0.5117474,-0.3642034,0.391504,-0.1146519,-0.3409549,0.0.0.0,10.221.79.104,1,0
2014-11-28 15:46:05.989,133,4.433333,56.17329,10.18937,69.24945,0.4,195.1172,16,10,1417185964,-3.679611,2.123444,0.9883575,-19.31621,40.16669,-10.88827,344.3982,342.1205,20,2.806679,8.234036,-1.901966,-1.923367,-1.062021,-0.8276135,-2.089929,2.879205,-0.06764157,0.7956759,-0.9648801,2.943608,0.0.0.0,10.221.79.104,1,0
2014-11-28 15:46:06.022,134,4.466667,56.1733,10.18938,69.33496,1.33,28.82812,16,30,1417185965,0.3779907,0.1032257,1.074631,-19.19805,39.81114,-12.72144,344.8891,342.6114,20,-2.363005,0.6221821,0.7419258,-1.935698,-0.9181308,-0.7836053,1.248737,2.257546,-0.7560009,-0.3258157,1.22359,2.052148,0.0.0.0,10.221.79.104,1,0
2014-11-28 15:46:06.056,135,4.5,56.1733,10.18938,69.33496,1.33,28.82812,16,30,1417185965,0.1620636,0.5124817,1.173782,-18.23598,40.16669,-13.20039,353.7479,351.4702,20,-4.432633,3.455168,1.158341,-1.994832,-0.934277,-0.8335289,-4.505383,0.6366864,1.029892,1.055265,-0.7252784,1.631773,0.0.0.0,10.221.79.104,1,0
2014-11-28 15:46:06.089,136,4.533334,56.1733,10.18938,69.33496,1.33,28.82812,16,30,1417185965,-1.084808,1.99794,0.490921,-17.56083,40.97935,-12.14342,353.6229,351.3452,20,-4.381639,0.7207257,-2.311317,-2.277518,-1.023735,-0.9660706,-3.776517,0.9394066,-2.007846,-1.016208,1.039647,-0.1263322,0.0.0.0,10.221.79.104,1,0
2014-11-28 15:46:06.122,137,4.566667,56.1733,10.18938,69.33496,1.33,28.82812,16,30,1417185965,-0.5507965,2.205185,-0.2291565,-17.76337,41.18253,-9.99646,358.4983,356.2206,20,-1.828481,-2.718732,-2.201496,-2.542228,-1.225318,-0.9573925,-3.432894,-0.3649555,-2.345188,-0.009155862,1.387492,-0.03421293,0.0.0.0,10.221.79.104,1,0
2014-11-28 15:46:06.156,138,4.6,56.1733,10.18938,69.33496,1.33,28.82812,16,30,1417185965,-0.6419678,2.433502,-0.302597,-18.08406,41.57193,-6.577843,1.704968,359.4272,20,-0.2376789,-5.948069,-1.618536,-2.59462,-1.289807,-0.9421911,-1.865302,-2.713838,-2.191387,0.01415945,1.396336,-0.06609537,0.0.0.0,10.221.79.104,1,0
2014-11-28 15:46:06.190,139,4.633334,56.1733,10.18938,69.33496,1.33,28.82812,16,30,1417185965,-1.415802,1.243469,-0.9107056,-20.36266,40.81004,1.365913,6.45144,4.173718,20,-3.621785,-0.9246938,-0.91832,-2.770141,-1.62297,-0.8892683,-4.144804,-0.9514095,-0.3929737,-0.5557371,0.8162997,-0.5078291,0.0.0.0,10.221.79.104,1,0
2014-11-28 15:46:06.222,140,4.666667,56.1733,10.18938,69.33496,1.33,28.82812,16,30,1417185965,-0.9683228,0.8031616,-0.9428253,-21.79733,39.74341,5.511192,5.893732,3.61601,20,-1.994285,-2.108335,-1.493894,-2.919243,-1.775848,-0.8434184,-2.487542,-1.775069,-1.318044,-0.463625,0.08773533,-1.032529,0.0.0.0,10.221.79.104,1,0
2014-11-28 15:46:06.256,141,4.7,56.1733,10.18938,69.33496,1.33,28.82812,16,30,1417185965,-0.164032,0.673645,-0.7558136,-22.79316,38.87994,9.590424,9.415504,7.137782,20,-0.8255794,-2.097023,-1.561724,-2.963452,-1.853729,-0.8026747,-1.325992,-2.251468,-1.635263,0.05951067,0.07131039,-1.179271,0.0.0.0,10.221.79.104,1,0
2014-11-28 15:46:06.289,142,4.733334,56.1733,10.18938,69.33496,1.33,28.82812,16,30,1417185965,0.4154663,0.2701721,-0.7567749,-24.85235,36.23875,15.53585,13.06156,10.78383,20,0.09578272,-0.2944489,-1.310279,-2.979972,-1.918193,-0.7301558,-0.4166549,-0.3419699,-1.523596,1.077881,-0.4354336,-0.8671088,0.0.0.0,10.221.79.104,1,0
2014-11-28 15:46:06.322,143,4.766667,56.1733,10.18938,69.33496,1.33,28.82812,16,30,1417185965,0.1588898,0.4829712,-0.4046936,-25.84818,35.20599,17.07175,16.20789,13.93016,20,0.6451334,0.4952108,-0.386789,-2.95559,-1.901378,-0.7003184,0.4997971,0.4822257,-0.7124984,1.077986,-0.06899121,-0.6533777,0.0.0.0,10.221.79.104,1,0
2014-11-28 15:46:06.357,144,4.8,56.1733,10.18938,69.33496,1.33,28.82812,16,30,1417185965,-0.4634094,0.02073669,-0.282135,-26.82713,34.42717,17.56721,18.61042,16.3327,20,1.968581,0.6416641,-0.2446308,-2.916229,-1.860497,-0.7024005,1.500184,0.4991447,-0.08735284,0.3464005,-0.4360451,-0.7868181,0.0.0.0,10.221.79.104,1,0
2014-11-28 15:46:06.390,145,4.833333,56.1733,10.18938,69.33496,1.33,28.82812,16,30,1417185965,-0.3447571,0.2051849,0.2199402,-28.66689,34.64728,15.30465,19.47534,17.19762,20,2.835276,0.3300557,-0.4648489,-2.832734,-1.78577,-0.7086114,2.164148,0.4840112,-0.3977457,0.4381397,-0.6955494,0.1246991,0.0.0.0,10.221.79.104,1,0
2014-11-28 15:46:06.422,146,4.866667,56.1733,10.18938,69.33496,1.33,28.82812,16,30,1417185965,-0.3101654,1.042679,0.3911133,-29.39266,35.27373,12.97601,18.16859,15.89087,20,2.63942,1.29492,-0.09877345,-2.70701,-1.685794,-0.709195,2.957378,1.057598,-0.4272549,0.4091169,-0.4460381,0.132862,0.0.0.0,10.221.79.104,1,0
2014-11-28 15:46:06.456,147,4.9,56.1733,10.18938,69.33496,1.33,28.82812,16,30,1417185965,-1.005615,2.713654,0.3009338,-29.88213,35.86629,9.986794,15.39029,13.11257,20,2.633864,1.687842,1.085183,-2.600409,-1.584175,-0.7215521,2.482886,0.6031458,0.7192881,0.166272,1.858126,0.2986872,0.0.0.0,10.221.79.104,1,0
2014-11-28 15:46:06.490,148,4.933333,56.1733,10.18938,69.33496,1.33,28.82812,16,30,1417185965,-1.83374,1.614273,-0.1629944,-29.61208,36.84827,6.386505,12.71783,10.4401,20,3.224097,1.587877,1.796428,-2.432271,-1.364162,-0.7774068,3.094386,2.280285,2.069228,-0.5301493,0.7684456,-0.4437816,0.0.0.0,10.221.79.104,1,0
2014-11-28 15:46:06.522,149,4.966667,56.1733,10.18938,69.33496,1.33,28.82812,16,30,1417185965,-2.09108,1.760071,-0.02375793,-27.65418,38.50749,-1.871033,8.73845,6.460728,20,3.153267,0.8578513,2.092815,-2.282317,-1.20816,-0.8004251,2.623045,1.536958,1.472164,-1.436597,0.9732352,0.2028067,0.0.0.0,10.221.79.104,1,0
2014-11-28 15:46:06.557,150,5,56.1733,10.18938,69.33496,1.33,28.82812,16,30,1417185965,-0.3445435,2.977661,0.09187317,-25.66251,39.08313,-6.164948,5.56243,3.284708,20,4.252739,-1.013037,2.748315,-2.181783,-1.106087,-0.8134652,3.116443,0.8627856,2.102921,-0.3613024,1.393628,0.004170312,0.0.0.0,10.221.79.104,1,0
2014-11-28 15:46:06.589,151,5.033334,56.1733,10.18938,69.33496,1.33,28.82812,16,30,1417185965,-0.9312744,2.198029,-0.1045074,-23.38393,39.81114,-10.67357,359.0359,356.7582,20,5.292201,-3.165375,2.501663,-1.849291,-0.8960885,-0.8184398,4.430406,-1.337415,2.805876,-0.1827096,1.793143,0.1178078,0.0.0.0,10.221.79.104,1,0
2014-11-28 15:46:06.622,152,5.066667,56.1733,10.18938,69.33496,1.33,28.82812,16,30,1417185965,-0.7652588,0.8971863,0.4079742,-20.16013,38.57521,-19.01369,345.0046,342.7269,20,4.866047,-6.09261,2.242141,-1.598807,-0.8116866,-0.7717994,5.232503,-4.113503,2.436503,-0.4824213,0.7042617,0.8694478,0.0.0.0,10.221.79.104,1,0
2014-11-28 15:46:06.656,153,5.1,56.1733,10.18938,69.33496,1.33,28.82812,16,30,1417185965,-0.4002228,0.07531738,0.6812897,-19.26556,37.44084,-22.23414,335.8137,333.536,20,2.759278,-5.437942,1.319177,-1.44415,-0.8232155,-0.7343453,4.829224,-6.087676,2.252247,-0.04091796,-0.1207086,1.127798,0.0.0.0,10.221.79.104,1,0
2014-11-28 15:46:06.689,154,5.133334,56.1733,10.18938,69.33496,1.33,28.82812,16,30,1417185965,-0.06625366,-1.12352,0.5766907,-19.75504,36.13719,-24.03428,323.7087,321.431,20,-1.3637,-2.490156,-0.5945361,-1.296035,-0.9398129,-0.7074307,0.3558086,-3.618236,0.3959474,0.2801612,-1.570034,1.061182,0.0.0.0,10.221.79.104,1,0
2014-11-28 15:46:06.722,155,5.166667,56.1733,10.18938,69.33496,1.33,28.82812,16,30,1417185965,-0.0496521,-0.4005585,0.3916779,-21.07157,34.9859,-24.49671,314.6084,312.3307,20,-2.855542,-1.512161,-0.3928125,-1.345388,-1.056319,-0.7159269,-2.099482,-1.826424,-0.6386013,0.5905635,-1.779837,0.9479576,0.0.0.0,10.221.79.104,1,0
2014-11-28 15:46:06.756,156,5.2,56.1733,10.18938,69.33496,1.33,28.82812,16,30,1417185965,-0.4266968,0.4909058,-0.9687958,-24.22784,35.17213,-20.91293,312.1307,309.853,20,-1.44581,-0.4578677,0.4432033,-1.458216,-1.180987,-0.7423638,-2.857232,-1.494303,-0.1142058,0.5863482,-0.7905335,0.4684819,0.0.0.0,10.221.79.104,1,0
2014-11-28 15:46:06.789,157,5.233334,56.1733,10.18938,69.33496,1.33,28.82812,16,30,1417185965,-0.3960114,1.381653,-1.590469,-25.2068,35.74779,-19.09628,311.3126,309.0349,20,2.090848,1.135615,1.686181,-1.51671,-1.236925,-0.7724216,-0.05879619,0.9517959,0.9302692,0.250633,0.1655469,-1.202105,0.0.0.0,10.221.79.104,1,0
2014-11-28 15:46:06.822,158,5.266667,56.1733,10.18938,69.33496,1.33,28.82812,16,30,1417185965,0.3099518,0.8017426,-1.120209,-25.00426,36.76363,-18.43568,310.6382,308.3605,20,1.785344,-1.763136,1.331625,-1.416368,-1.130903,-0.7974229,2.714897,0.3065141,1.754518,0.2360373,0.6660946,-1.292995,0.0.0.0,10.221.79.104,1,0
2014-11-28 15:46:06.856,159,5.3,56.1733,10.18938,69.33496,1.33,28.82812,16,30,1417185965,-1.473862,0.9206543,1.053238,-24.31223,37.59326,-18.12189,311.3789,309.1012,20,0.911045,0.8881815,0.2210591,-1.321094,-1.093956,-0.8140109,-0.8122525,0.2444408,1.044491,1.282331,-0.153942,1.617967,0.0.0.0,10.221.79.104,1,0
2014-11-28 15:46:06.889,160,5.333333,56.1733,10.18938,69.33496,1.33,28.82812,16,30,1417185965,-0.2873077,-0.02433777,2.039429,-22.15179,37.62711,-21.39187,305.0014,302.7237,20,-1.724609,0.1934502,-0.6985416,-1.19589,-0.9667754,-0.7763092,1.858706,-0.9503311,-0.2143849,-1.310419,-0.6272713,0.8628963,0.0.0.0,10.221.79.104,1,0
2014-11-28 15:46:06.922,161,5.366667,56.1733,10.18938,69.33496,1.33,28.82812,16,30,1417185965,-0.8605194,1.579239,0.750061,-21.426,37.61017,-22.6305,307.409,305.1313,20,-4.833313,0.9471098,-0.5480961,-1.318543,-1.04579,-0.8077351,-4.557824,0.3880647,-0.5914222,0.3072838,-0.2581546,1.748159,0.0.0.0,10.221.79.104,1,0
2014-11-28 15:46:06.956,162,5.4,56.1733,10.18938,69.33496,1.33,28.82812,16,30,1417185965,-1.066177,2.412186,-0.6545563,-21.35849,37.91493,-22.43233,307.8264,305.5486,20,-2.316622,0.6496111,-1.424335,-1.388772,-1.088644,-0.8274478,-4.870135,0.9520437,-0.537991,0.07633612,0.2149196,1.373359,0.0.0.0,10.221.79.104,1,0
2014-11-28 15:46:06.990,163,5.433333,56.1733,10.18938,69.33496,1.33,28.82812,16,30,1417185965,-0.4673615,2.015396,0.84375,-22.77629,38.05038,-20.08718,307.2626,304.9849,20,-0.9121665,-4.670548,0.1424067,-1.543763,-1.290204,-0.8050272,-0.1707299,-5.35627,-0.9038476,0.03776618,1.679434,0.786066,0.0.0.0,10.221.79.104,1,0
2014-11-28 15:46:07.022,164,5.466667,56.17332,10.18939,69.79834,1.38,28.125,16,30,1417185967,-1.890244,1.47673,-0.4453583,-24.0253,38.93079,-16.75114,310.1992,307.9215,20,-3.594075,-2.29346,0.332024,-1.626978,-1.480118,-0.8295372,-3.272121,-2.977723,0.844203,-0.646374,0.895987,0.4309403,0.0.0.0,10.221.79.104,1,0
2014-11-28 15:46:07.055,165,5.5,56.17332,10.18939,69.79834,1.38,28.125,16,30,1417185967,-1.572174,1.301376,-0.7259216,-25.17304,39.54027,-12.5563,306.4261,304.1484,20,-2.918885,-2.540141,-0.7657264,-1.786135,-1.667481,-0.8273323,-3.097011,-1.989644,-0.5471498,-1.158823,0.5856642,-0.6186522,0.0.0.0,10.221.79.104,1,0
2014-11-28 15:46:07.091,166,5.533334,56.17332,10.18939,69.79834,1.38,28.125,16,30,1417185967,-0.74646,1.230286,-1.085922,-27.18159,39.92967,-3.885887,306.5107,304.233,20,-1.77243,-2.142213,-0.7919043,-1.898044,-1.826418,-0.7869076,-2.101041,-2.359152,-0.9209091,-0.2670222,0.5901361,-1.198722,0.0.0.0,10.221.79.104,1,0
2014-11-28 15:46:07.121,167,5.566667,56.17332,10.18939,69.79834,1.38,28.125,16,30,1417185967,0.2742004,0.2715912,-0.8736267,-27.62043,40.20058,0.3089447,308.5934,306.3156,20,-0.7289101,-0.7358719,-0.5747139,-1.957596,-1.926669,-0.7504823,-1.286719,-1.408219,-0.6087249,0.4917026,0.1360931,-1.390036,0.0.0.0,10.221.79.104,1,0
2014-11-28 15:46:07.156,168,5.6,56.17332,10.18939,69.79834,1.38,28.125,16,30,1417185967,0.4152832,0.5637817,-1.282913,-27.83984,40.08206,3.595444,311.1098,308.8321,20,0.840871,-0.5497691,0.1474952,-1.971785,-1.961379,-0.7313854,-0.06295574,-0.913308,-0.1928766,1.009945,-0.3471616,-1.354432,0.0.0.0,10.221.79.104,1,0
2014-11-28 15:46:07.189,169,5.633334,56.17332,10.18939,69.79834,1.38,28.125,16,30,1417185967,0.3430481,0.421936,0.006408691,-27.97488,40.25137,4.982719,312.4232,310.1455,20,1.601131,0.8954567,0.9835147,-1.932295,-1.926463,-0.7564374,1.491859,1.388989,0.7523466,1.153112,0.005117262,-0.2258626,0.0.0.0,10.221.79.104,1,0
2014-11-28 15:46:07.222,170,5.666667,56.17332,10.18939,69.79834,1.38,28.125,16,30,1417185967,-0.4784393,-0.1972809,0.003311157,-26.86089,40.89476,3.430298,310.077,307.7993,20,2.917298,0.4042892,0.8580199,-1.854557,-1.85184,-0.8114355,3.054092,0.2474844,1.153309,0.5416201,-0.7311356,-0.2700666,0.0.0.0,10.221.79.104,1,0
2014-11-28 15:46:07.257,171,5.7,56.17332,10.18939,69.79834,1.38,28.125,16,30,1417185967,-0.4959869,-0.05380249,-0.1859131,-25.88195,41.09792,1.184242,306.2992,304.0215,20,2.79003,1.040497,0.470155,-1.733931,-1.743945,-0.8551398,2.716771,0.8564987,0.5451334,0.1150217,-0.9017268,-0.3185897,0.0.0.0,10.221.79.104,1,0
2014-11-28 15:46:07.289,172,5.733334,56.17332,10.18939,69.79834,1.38,28.125,16,30,1417185967,-1.096573,2.108856,0.1535187,-24.73421,41.70743,-2.383011,303.0319,300.7542,20,1.065695,3.682378,1.800088,-1.560057,-1.556135,-0.8964199,2.384374,1.82638,1.168247,0.1867975,0.2088938,-0.1085212,0.0.0.0,10.221.79.104,1,0
2014-11-28 15:46:07.322,173,5.766667,56.17332,10.18939,69.79834,1.38,28.125,16,30,1417185967,-1.945435,2.556061,-0.2674561,-20.8859,41.43652,-9.781776,299.0916,296.8139,20,3.18406,1.955447,2.756893,-1.478561,-1.386586,-0.9463163,1.311193,4.233597,1.973769,-1.094192,1.670132,-0.06894547,0.0.0.0,10.221.79.104,1,0
2014-11-28 15:46:07.355,174,5.8,56.17332,10.18939,69.79834,1.38,28.125,16,30,1417185967,-1.449692,2.064346,-0.9905853,-17.93216,41.11484,-13.53069,297.6701,295.3924,20,2.947304,2.124444,2.623287,-1.358297,-1.229581,-0.9819637,3.147237,1.960421,2.766995,-1.121541,1.305251,0.1557613,0.0.0.0,10.221.79.104,1,0
2014-11-28 15:46:07.389,175,5.833333,56.17332,10.18939,69.79834,1.38,28.125,16,30,1417185967,-0.9020996,2.504471,-0.7106781,-14.89404,40.60692,-17.75856,293.1082,290.8304,20,5.276754,-1.100853,1.832832,-1.035465,-0.8858271,-1.008787,4.685995,0.3838256,2.67298,-0.8080145,1.448721,-0.8049284,0.0.0.0,10.221.79.104,1,0
2014-11-28 15:46:07.421,176,5.866667,56.17332,10.18939,69.79834,1.38,28.125,16,30,1417185967,-0.7528076,1.220444,-0.1155548,-11.72088,38.98157,-21.68916,288.9185,286.6407,20,5.783326,-3.563015,0.5165433,-0.74866,-0.6782786,-0.9321381,5.685046,-2.323705,1.109032,-0.282732,1.221289,-0.1125358,0.0.0.0,10.221.79.104,1,0
2014-11-28 15:46:07.456,177,5.9,56.17332,10.18939,69.79834,1.38,28.125,16,30,1417185967,-0.5668945,0.7561646,0.1755371,-9.543556,32.6664,-29.3026,279.286,277.0083,20,4.928776,-5.421285,0.04533819,-0.5534124,-0.6402906,-0.7970514,5.576952,-4.106109,0.4919918,-0.2679763,0.1982908,0.5983317,0.0.0.0,10.221.79.104,1,0
2014-11-28 15:46:07.489,178,5.933334,56.17332,10.18939,69.79834,1.38,28.125,16,30,1417185967,0.0725708,-0.3587036,0.5283508,-11.01198,28.45065,-32.19276,274.3092,272.0315,20,0.8276308,-3.924573,0.001332912,-0.4198609,-0.7139415,-0.677721,3.740729,-5.409258,-0.1713676,0.2735026,-0.4374899,1.117371,0.0.0.0,10.221.79.104,1,0
2014-11-28 15:46:07.522,179,5.966667,56.17332,10.18939,69.79834,1.38,28.125,16,30,1417185967,0.1325836,-0.8579865,0.6740112,-13.83069,24.67509,-33.82775,270.188,267.9103,20,-1.812228,-2.407527,0.4008928,-0.3869994,-0.827477,-0.6486707,-0.2545969,-3.437754,0.2166349,0.8057142,-1.149645,1.06513,0.0.0.0,10.221.79.104,1,0
2014-11-28 15:46:07.557,180,6,56.17332,10.18939,69.79834,1.38,28.125,16,30,1417185967,-0.09028625,-0.4885254,0.4260406,-17.25703,22.11855,-33.97639,264.7575,262.4798,20,-3.538047,-1.220551,0.5152173,-0.4294608,-0.9355063,-0.6907235,-2.603384,-1.83134,0.4280052,0.6436744,-1.406931,1.059764,0.0.0.0,10.221.79.104,1,0
2014-11-28 15:46:07.589,181,6.033334,56.17332,10.18939,69.79834,1.38,28.125,16,30,1417185967,-0.5276947,0.2776642,-0.2511292,-22.53999,22.50797,-30.5908,258.746,256.4683,20,-3.278867,-0.05295137,0.604892,-0.5405817,-1.050616,-0.7639549,-3.818519,-0.9368898,0.6631258,0.4162195,-0.6728466,0.5404775,0.0.0.0,10.221.79.104,1,0
2014-11-28 15:46:07.622,182,6.066667,56.17332,10.18939,69.79834,1.38,28.125,16,30,1417185967,-0.9241333,1.335632,-1.739655,-23.43456,24.52272,-28.75762,258.2843,256.0066,20,0.8036411,1.994395,0.9134528,-0.6732053,-1.11148,-0.8502685,0.1328974,2.189276,0.8515794,-0.3327344,0.5841748,-1.44715,0.0.0.0,10.221.79.104,1,0
2014-11-28 15:46:07.656,183,6.1,56.17332,10.18939,69.79834,1.38,28.125,16,30,1417185967,-0.339386,0.3644409,-0.2077026,-23.04635,26.50363,-27.22172,258.9795,256.7018,20,1.119034,0.7269189,0.5752133,-0.6566826,-1.076583,-0.8555905,0.7668201,1.999369,0.9235545,-0.1600309,0.2926186,-0.9513313,0.0.0.0,10.221.79.104,1,0
2014-11-28 15:46:07.691,184,6.133334,56.17332,10.18939,69.79834,1.38,28.125,16,30,1417185967,-1.384674,0.3381042,1.107285,-20.83526,28.11205,-26.77579,259.4554,257.1777,20,1.114309,0.2826679,-0.8093901,-0.5976868,-0.9433776,-0.8387538,0.7434837,2.064101,-1.240706,-1.805191,0.2465762,1.225299,0.0.0.0,10.221.79.104,1,0
2014-11-28 15:46:07.722,185,6.166667,56.17332,10.18939,69.79834,1.38,28.125,16,30,1417185967,0.2794647,0.002258301,0.767395,-19.29932,28.16284,-27.8823,261.6987,259.421,20,-3.410068,1.662103,0.06994633,-0.6059228,-0.9045886,-0.8165995,-1.167524,2.248109,-0.3943737,0.3734076,-0.7243051,1.332607,0.0.0.0,10.221.79.104,1,0
2014-11-28 15:46:07.756,186,6.2,56.17332,10.18939,69.79834,1.38,28.125,16,30,1417185967,-0.1393433,1.572281,0.6722717,-17.96592,28.78929,-28.29517,266.1632,263.8855,20,-5.378454,2.248267,0.8500382,-0.698451,-0.9363313,-0.8684835,-5.029444,1.780346,0.4858992,0.8628442,0.2521375,1.88968,0.0.0.0,10.221.79.104,1,0
